Name,State,ID,Main,Accred,MainDegree,HighDegree,Control,Region,Locale,Latitude,Longitude,AdmitRate,MidACT,AvgSAT,Online,Enrollment,White,Black,Hispanic,Asian,Other,PartTime,NetPrice,Cost,TuitionIn,TuitonOut,TuitionFTE,InstructFTE,FacSalary,FullTimeFac,Pell,CompRate,Debt,Female,FirstGen,MedIncome
Central Alabama Community College,AL,100760,1,Southern Association of Colleges and Schools Commission on Colleges,2,2,Public,Southeast,Town,32.92478,-85.945266,,,,0,1404,70.6,26.4,1.5,0.3,1.3,34.6,5239,10045,4440,8010,1580,6738,5896,44.9,47.9,27.84,191,60.4,55,22.2
Chattahoochee Valley Community College,AL,101028,1,Southern Association of Colleges and Schools Commission on Colleges,2,2,Public,Southeast,Rural,32.42391,-85.031485,,,,0,1370,48.3,40.5,5.6,1.1,4.6,40.4,769,6854,4314,7884,2035,4467,5961,38.3,53.8,19.58,161,61.2,43,20.8
Enterprise State Community College,AL,101143,1,Southern Association of Colleges and Schools Commission on Colleges,2,2,Public,Southeast,Town,31.297496,-85.836956,,,,0,1365,67.2,21.3,5.3,1.6,4.6,36.4,7736,9289,4440,8010,2606,6309,6337,45,41.2,19.3,72,51.7,42.2,20.5
Coastal Alabama Community College,AL,101161,1,Southern Association of Colleges and Schools Commission on Colleges,2,2,Public,Southeast,Town,30.851343,-87.778193,,,,0,4101,69.5,20.9,3.5,1.3,4.7,40,7430,12323,4380,7890,1949,4029,5932,47.4,40.1,14.32,468,65.3,43.5,24.2
George C Wallace Community College-Dothan,AL,101286,1,Southern Association of Colleges and Schools Commission on Colleges,2,2,Public,Southeast,City,31.315274,-85.465836,,,,0,3836,62.3,31.3,3,0.7,2.7,50.3,2664,9298,4380,7950,2313,5319,5866,58.5,51.1,23.74,,66.8,48.5,15.8
George C Wallace State Community College-Hanceville,AL,101295,1,Southern Association of Colleges and Schools Commission on Colleges,2,2,Public,Southeast,Town,34.072439,-86.781935,,,,0,4805,83.3,6.5,4.9,0.5,4.9,48.4,6652,10610,3726,6582,2962,5107,5790,34.6,45.7,39.55,879,63.1,49.9,27.6
George C Wallace State Community College-Selma,AL,101301,1,Southern Association of Colleges and Schools Commission on Colleges,2,2,Public,Southeast,Town,32.445917,-87.013294,,,,0,1217,21.7,73.7,0.7,0.4,3.5,32.9,8241,14571,4140,7710,1279,3793,4775,57.6,68.9,22.19,,59.9,51.3,14.3
Jefferson Davis Community College,AL,101499,0,Southern Association of Colleges and Schools Commission on Colleges,2,2,Public,Southeast,Town,31.101254,-87.08534,,,,0,720,56.5,32.4,1,2.1,8.1,36.1,5084,11607,4088,7598,803,4302,6173,58.9,51.3,26.38,468,65.1,52.2,16.2
Jefferson State Community College,AL,101505,1,Southern Association of Colleges and Schools Commission on Colleges,2,2,Public,Southeast,City,33.652535,-86.707233,,,,0,7052,62.1,24.6,4.9,1.9,6.6,62.9,9003,13017,4500,8070,3130,5235,6451,33.6,28,8.76,618,66.1,45,25.9
John C Calhoun State Community College,AL,101514,1,Southern Association of Colleges and Schools Commission on Colleges,2,2,Public,Southeast,Rural,34.645844,-86.949674,,,,0,8247,65.1,19.3,5.6,2,8,61,5401,9907,4520,8090,3451,4803,6479,30.7,33.1,25.42,664,58.1,45.5,25.2
Lurleen B Wallace Community College,AL,101602,1,Southern Association of Colleges and Schools Commission on Colleges,2,2,Public,Southeast,Rural,31.322947,-86.452262,,,,0,1354,69.9,24.9,1.4,0.3,3.5,29.8,7941,13663,4440,8010,1666,6067,6303,64.7,51.8,34.75,,62.4,52,18.2
Marion Military Institute,AL,101648,1,Southern Association of Colleges and Schools Commission on Colleges,2,2,Public,Southeast,Rural,32.623734,-87.322041,0.5587,23,1138,0,444,65.3,16.9,6.3,3.2,8.3,0.5,11671,18568,9418,15418,2364,4098,4647,81.5,41.2,34.42,113,23.4,23.4,38.4
Northwest-Shoals Community College,AL,101736,1,Southern Association of Colleges and Schools Commission on Colleges,2,2,Public,Southeast,City,34.739788,-87.678089,,,,0,2698,79.3,9.9,6,0.4,4.3,47,6179,11386,4411,7921,2422,5545,4895,54.2,46.2,15.77,201,61.8,51.4,21.2
Alabama Southern Community College,AL,101949,0,Southern Association of Colleges and Schools Commission on Colleges,2,2,Public,Southeast,Rural,31.488925,-87.326352,,,,0,765,57.5,36.2,1.3,0.3,4.7,29.5,3784,10913,4380,7890,1467,5158,6213,70.7,50.3,36.83,468,59.6,51.6,15.4
Shelton State Community College,AL,102067,1,Southern Association of Colleges and Schools Commission on Colleges,2,2,Public,Southeast,City,33.120531,-87.56148,,,,0,4230,54.7,38.3,0.1,0.7,6.2,51.3,6243,11414,4189,7759,2496,4277,4690,44.5,44.7,15.86,,59,47.6,16
Snead State Community College,AL,102076,1,Southern Association of Colleges and Schools Commission on Colleges,2,2,Public,Southeast,Town,34.201495,-86.169897,,,,0,1891,73.1,8.1,12.9,1,5,33.8,5094,10704,4500,8070,2530,3167,6934,27.9,50.1,42.72,292,62.7,53.3,23.7
Bevill State Community College,AL,102429,1,Southern Association of Colleges and Schools Commission on Colleges,2,2,Public,Southeast,Town,33.836929,-87.266406,,,,0,3029,79.6,15.9,2,0.3,2.3,47.8,7873,13164,4766,8574,2122,6259,6476,32.5,47.6,19.02,,65,53.1,16.9
CollegeAmerica-Flagstaff,AZ,103945,1,Accrediting Commission of Career Schools and Colleges,2,3,Private,West,City,35.194495,-111.657673,,,,0,78,21.8,2.6,7.7,0,68,0,27265,31920,16968,16968,18729,5854,7012,,78.2,28.93,478,68.1,58.5,13.1
Cochise County Community College District,AZ,104425,1,Higher Learning Commission,2,2,Public,West,City,31.564597,-110.246946,,,,0,3528,39.2,5.3,45.8,1.8,7.9,58.1,5768,10987,1968,6240,829,2418,6411,33.3,35.5,25.14,154,56.8,48.6,20.9
Mesa Community College,AZ,105154,1,Higher Learning Commission,2,2,Public,West,City,33.390323,-111.871255,,,,0,15759,45.9,6.3,28.4,4,15.4,64.7,8020,12302,2094,7878,2304,4792,7647,100,29.1,15.85,401,54.5,45.8,22.6
Mohave Community College,AZ,105206,1,Higher Learning Commission,2,2,Public,West,Rural,35.270996,-114.029838,,,,0,2875,67.4,0.8,23.3,1.5,7,75.4,8037,12394,2112,6972,2066,4533,6883,27.7,38.2,13.95,318,63,53.6,19.7
Dine College,AZ,105297,1,Higher Learning Commission,2,3,Public,West,Rural,36.293328,-109.21684,,,,0,1363,0.3,0.2,0.2,0,99.4,34.5,8248,11872,1410,1410,305,9289,5379,100,57.5,13.27,,63.5,43.2,14.5
Phoenix College,AZ,105428,1,Higher Learning Commission,2,2,Public,West,City,33.481361,-112.088293,,,,0,9147,21.2,9.5,54.6,2.9,11.8,69.5,7184,11788,2094,7878,1692,5090,7432,100,38.6,17.92,400,63,61.6,20.7
Scottsdale Community College,AZ,105747,1,Higher Learning Commission,2,2,Public,West,Rural,33.51135,-111.885186,,,,0,6025,55.2,5.5,21.1,2.8,15.4,63.1,7579,11892,2094,7878,2462,6566,7309,100,17.9,18.89,321,53.2,40.2,22
South Mountain Community College,AZ,105792,1,Higher Learning Commission,2,2,Public,West,City,33.382406,-112.032635,,,,0,3167,11.5,17.6,54.9,2.7,13.4,60.8,6536,11292,2094,7878,1284,5894,7381,100,42.4,22.82,24,59.4,59,21.1
Universal Technical Institute of Arizona Inc,AZ,106041,1,Accrediting Commission of Career Schools and Colleges,2,2,Profit,West,Suburb,33.453005,-112.288123,,,,0,1860,43.1,3,28.6,3.4,22,0,20366,24484,44850,44850,13903,3189,5179,,45,63.83,6089,3.8,54.9,28.6
Arkansas Baptist College,AR,106306,1,Higher Learning Commission,2,3,Private,Southeast,City,34.734751,-92.290555,,,,0,593,5.2,93.3,0.7,0,0.8,16.4,17890,22512,8760,8760,8028,3966,4340,59.1,81,19.33,121,25,45,14.6
Baptist Health College Little Rock,AR,106546,1,Accrediting Bureau of Health Education Schools,2,2,Private,Southeast,City,34.713115,-92.40692,0.6875,23,1125,0,676,74,19.1,1.2,1.6,4.2,9.3,20281,21677,9867,9867,4345,9328,6372,63,78.7,40.74,619,86.4,41.7,29.6
National Park College,AR,106980,1,Higher Learning Commission,2,2,Public,Southeast,Suburb,34.512687,-93.119248,,,,0,2140,77.4,18.6,0,1.1,3,40.4,9108,13301,3450,4950,2195,7351,5217,100,59.3,27.2,441,59.2,45.7,17.5
Shorter College,AR,107840,1,Transnational Association of Christian Colleges and Schools,2,2,Private,Southeast,City,34.75933,-92.261331,,,,0,521,41.8,54.5,1.9,0,1.7,33,15773,21444,4904,4904,6562,4364,3125,29.7,87,8.33,67,47.3,55.7,0
Allan Hancock College,CA,108807,1,Western Association of Schools and Colleges Accrediting Commission for Community and Junior Colleges,2,2,Public,West,City,34.943716,-120.421144,,,,0,9282,28.6,2.7,60.1,3.8,4.8,66.3,3641,10348,1352,6784,654,5767,6756,27.7,21,31.43,42,53.7,59.5,23.5
American Academy of Dramatic Arts-Los Angeles,CA,108852,0,Middle States Commission on Higher Education,2,2,Private,West,City,34.095378,-118.343701,0.7859,,,0,280,45.7,5.7,1.4,0.4,46.8,0,36711,48240,34170,34170,25137,8469,8120,16,30,69.18,232,59.5,23.4,41.2
Antelope Valley College,CA,109350,1,Western Association of Schools and Colleges Accrediting Commission for Community and Junior Colleges,2,2,Public,West,Suburb,34.676207,-118.186166,,,,0,11868,21.2,16,53.1,3.6,6.2,66.7,8316,15110,1124,6500,467,4683,8781,20.3,45.6,23.81,479,58.9,56.2,13.7
Bakersfield College,CA,109819,1,Western Association of Schools and Colleges Accrediting Commission for Community and Junior Colleges,2,2,Public,West,City,35.40911,-118.973753,,,,0,18695,22.2,4.8,64,4.2,4.8,64.8,5904,12027,1325,7261,536,4748,9433,54,34.2,22.77,67,58.4,63.1,18.2
Barstow Community College,CA,109907,1,Western Association of Schools and Colleges Accrediting Commission for Community and Junior Colleges,2,2,Public,West,Town,34.870285,-117.023412,,,,0,2762,31.1,15.2,37.9,2.9,12.8,55.4,7923,14307,1104,6720,399,3501,8516,27.6,49.6,15.58,,62.8,53.1,15
Bryan University,AZ,110219,1,Accrediting Commission of Career Schools and Colleges,2,3,Profit,West,City,33.437779,-111.944197,,,,0,1242,40,19.3,8.1,0.6,32.1,0,19369,23530,13975,13975,12386,4182,4650,27.1,67.9,26.62,508,67.2,53.5,14.5
Butte College,CA,110246,1,Western Association of Schools and Colleges Accrediting Commission for Community and Junior Colleges,2,2,Public,West,Rural,39.649782,-121.644831,,,,0,10188,54.2,2.4,28.4,5.8,9.2,52.2,4846,11717,1368,6984,987,5552,8864,21.7,41.6,31.28,163,51.3,50.9,16.9
Cabrillo College,CA,110334,1,Western Association of Schools and Colleges Accrediting Commission for Community and Junior Colleges,2,2,Public,West,Suburb,36.989448,-121.924797,,,,0,10556,43.9,1.4,44.2,3.3,7.3,61.5,7471,14270,1268,7028,793,6046,7591,40.8,22,25.72,132,55.9,50.8,19.2
Canada College,CA,111434,1,Western Association of Schools and Colleges Accrediting Commission for Community and Junior Colleges,2,2,Public,West,Suburb,37.44877,-122.265398,,,,0,4996,25.6,3.5,44.3,13.7,12.9,80.6,3070,9513,1360,7968,1336,6658,9988,40.6,10.9,26.34,28,65.5,57.3,19.2
College of the Canyons,CA,111461,1,Western Association of Schools and Colleges Accrediting Commission for Community and Junior Colleges,2,2,Public,West,Suburb,34.403993,-118.568698,,,,0,17828,31.7,5.4,47.7,9.1,6.2,64.8,5596,11293,1154,6458,1011,5695,9762,29.6,19.8,36.18,137,57,51.5,21.4
Cerritos College,CA,111887,1,Western Association of Schools and Colleges Accrediting Commission for Community and Junior Colleges,2,2,Public,West,Suburb,33.886874,-118.097337,,,,0,16744,1,1.5,74,7.5,16.1,57.6,9520,14874,1346,8710,745,6296,10273,36.4,41.5,24.25,168,55.3,59.9,19
Cerro Coso Community College,CA,111896,1,Western Association of Schools and Colleges Accrediting Commission for Community and Junior Colleges,2,2,Public,West,Rural,35.567525,-117.66767,,,,0,4736,42.9,5.9,35.5,3.7,12,82.5,8670,14137,1290,7226,678,5603,10234,33.8,15.9,18.23,,66.5,51.3,13.8
Chabot College,CA,111920,1,Western Association of Schools and Colleges Accrediting Commission for Community and Junior Colleges,2,2,Public,West,City,37.642458,-122.105636,,,,0,12512,15.7,10.5,39.9,23.6,10.4,69.5,5385,11777,1138,7018,1219,5067,10038,39,19.9,32.53,62,58.9,55.5,19.3
Chaffey College,CA,111939,1,Western Association of Schools and Colleges Accrediting Commission for Community and Junior Colleges,2,2,Public,West,Suburb,34.147663,-117.573932,,,,0,19725,15.2,7.5,65.3,5.8,6.2,70.3,8845,15463,1170,7050,825,3717,9253,23.5,32.3,23.27,,59.8,55.8,19
Charles R Drew University of Medicine and Science,CA,111966,1,Western Association of Schools and Colleges Senior Colleges and University Commission,2,4,Private,West,Suburb,33.925658,-118.242791,0.9016,,1142,0,138,3.6,25.4,44.2,15.2,11.6,17.4,,,13972,13972,32726,21561,8760,41.1,56.8,25,148,67.7,47.7,23.2
Citrus College,CA,112172,1,Western Association of Schools and Colleges Accrediting Commission for Community and Junior Colleges,2,2,Public,West,Suburb,34.135487,-117.885266,,,,0,11629,16.6,3.8,63.6,8.1,7.8,55.8,3499,9307,1183,5959,1107,3853,8642,31,31.1,38.49,52,58.2,53.8,18.7
Coastline Community College,CA,112385,1,Western Association of Schools and Colleges Accrediting Commission for Community and Junior Colleges,2,2,Public,West,City,33.715634,-117.929143,,,,0,9764,31.3,11.3,30,20,7.5,87.3,8300,15144,1148,6548,984,3155,10084,17.1,14.5,19.14,86,55.7,55.5,18.7
Columbia College,CA,112561,1,Western Association of Schools and Colleges Accrediting Commission for Community and Junior Colleges,2,2,Public,West,Rural,38.030367,-120.388385,,,,0,2216,72.9,3.1,19.7,1.1,3.3,71.5,5552,11775,1162,6778,665,5645,8794,41.5,29.2,23.16,,58,53.4,13.9
Compton College,CA,112686,0,Western Association of Schools and Colleges Accrediting Commission for Community and Junior Colleges,2,2,Public,West,Suburb,33.878226,-118.209463,,,,0,6212,3.1,26.1,61,5.5,4.3,75,8088,14926,1142,5846,228,4330,8496,35.7,29.4,18.14,22,56.2,56.6,17.5
Contra Costa College,CA,112826,1,Western Association of Schools and Colleges Accrediting Commission for Community and Junior Colleges,2,2,Public,West,Suburb,37.969381,-122.337377,,,,0,5372,11.5,17.9,41.8,19,9.8,68.5,6455,12881,1312,8424,792,7430,9047,29.2,26.3,24.63,12,61.6,55.8,14.3
Cosumnes River College,CA,113096,1,Western Association of Schools and Colleges Accrediting Commission for Community and Junior Colleges,2,2,Public,West,City,38.45295,-121.423108,,,,0,13027,23.1,10.7,27.3,28.2,10.7,74.1,3942,10738,1104,8208,510,3626,8341,41.8,24.9,23.94,67,57.8,51.3,16.5
Crafton Hills College,CA,113111,1,Western Association of Schools and Colleges Accrediting Commission for Community and Junior Colleges,2,2,Public,West,Rural,34.039178,-117.101173,,,,0,5373,36.2,3.7,47.4,6.1,6.6,65.4,13314,19525,1143,7527,560,3596,8559,16.9,16.6,29.14,,57.3,56.8,20.5
Cuesta College,CA,113193,1,Western Association of Schools and Colleges Accrediting Commission for Community and Junior Colleges,2,2,Public,West,Suburb,35.331276,-120.742235,,,,0,7858,57.4,2.4,30,3.2,7.1,57.6,8211,14167,1338,6824,1104,5404,8343,36.9,19.6,32.69,131,58.6,42.9,19.2
Cuyamaca College,CA,113218,1,Western Association of Schools and Colleges Accrediting Commission for Community and Junior Colleges,2,2,Public,West,Suburb,32.744954,-116.943507,,,,0,7922,47.6,5,32.5,5.9,9,73.1,3422,10286,1386,7196,482,2820,7980,27.4,27.8,26.07,16,56.6,61,11.4
Cypress College,CA,113236,1,Western Association of Schools and Colleges Accrediting Commission for Community and Junior Colleges,2,2,Public,West,Suburb,33.82833,-118.025143,,,,0,14434,16.4,4,47.5,23.3,8.8,64,5043,11699,1142,6154,847,4821,9929,40.6,27.8,36.1,90,60,53.6,18.9
De Anza College,CA,113333,1,Western Association of Schools and Colleges Accrediting Commission for Community and Junior Colleges,2,2,Public,West,City,37.320788,-122.045558,,,,0,18183,18.5,3,26.5,35.7,16.3,48.2,4675,11249,1552,8752,1781,5344,8959,33.2,18,62.38,66,51.8,52.1,20.5
College of the Desert,CA,113573,1,Western Association of Schools and Colleges Accrediting Commission for Community and Junior Colleges,2,2,Public,West,Suburb,33.732108,-116.388271,,,,0,10074,17.5,2.8,71.5,3.1,5.1,57.8,8226,15024,1335,7663,832,6463,9445,27.8,38.3,26.4,16,55.9,62.1,20
Diablo Valley College,CA,113634,1,Western Association of Schools and Colleges Accrediting Commission for Community and Junior Colleges,2,2,Public,West,Suburb,37.968516,-122.073142,,,,0,17926,36.1,5.2,25.2,16.8,16.8,59.3,5637,12292,1312,8424,2004,6305,9258,32.8,16.5,44.76,22,55.4,45.3,16.8
El Camino Community College District,CA,113980,1,Western Association of Schools and Colleges Accrediting Commission for Community and Junior Colleges,2,2,Public,West,Suburb,33.885229,-118.329913,,,,0,21663,13.2,13.1,52.7,12.9,8.2,64.2,8765,15936,1142,5846,995,4292,9341,35,29.5,31.74,22,56.2,56.6,17.5
Evergreen Valley College,CA,114266,1,Western Association of Schools and Colleges Accrediting Commission for Community and Junior Colleges,2,2,Public,West,City,37.30167,-121.76561,,,,0,7780,6.9,2.4,43.7,37.1,9.8,67.2,11095,17876,1356,7852,857,7540,12597,34.3,27.7,32.37,36,59.3,63.7,15.2
FIDM-Fashion Institute of Design & Merchandising-Los Angeles,CA,114354,1,Western Association of Schools and Colleges Senior Colleges and University Commission,2,3,Profit,West,City,34.044209,-118.25993,0.3947,,,0,2367,34.4,6.1,21.3,9.1,29.1,10.7,41800,48893,32293,32293,29217,6148,3620,41,28.7,74.23,1580,89,30.2,44.6
FIDM-Fashion Institute of Design & Merchandising-San Francisco,CA,114390,0,Western Association of Schools and Colleges Senior Colleges and University Commission,2,3,Profit,West,City,37.786353,-122.406651,0.3687,,,0,279,36.6,6.1,23.3,16.9,17.2,17.9,37943,46244,32293,32293,47984,10096,2299,40.6,30.4,71.64,1580,89,30.2,44.6
FIDM-Fashion Institute of Design & Merchandising-Orange County,CA,114415,0,Western Association of Schools and Colleges Senior Colleges and University Commission,2,3,Profit,West,City,33.691963,-117.852254,0.5669,,,0,71,32.4,1.4,29.6,15.5,21.1,5.6,35112,42591,32293,32293,32333,6803,4018,27.3,39.6,69.41,1580,89,30.2,44.6
Feather River Community College District,CA,114433,1,Western Association of Schools and Colleges Accrediting Commission for Community and Junior Colleges,2,2,Public,West,Rural,39.953101,-120.973067,,,,0,1346,47.9,16.1,22.7,3.9,9.4,59.6,10163,16299,1461,8511,632,7314,7640,21.4,16.8,35.5,99,53.3,48.4,24.2
Foothill College,CA,114716,1,Western Association of Schools and Colleges Accrediting Commission for Community and Junior Colleges,2,2,Public,West,Suburb,37.361655,-122.127964,,,,0,13873,32.4,3.1,26.7,24.1,13.7,67.7,5291,11726,1554,8752,2179,6529,9126,28.6,7.3,55.69,82,60.6,49.9,19.7
Fresno City College,CA,114789,1,Western Association of Schools and Colleges Accrediting Commission for Community and Junior Colleges,2,2,Public,West,City,36.768164,-119.796096,,,,0,19322,20.7,5.3,57,13.1,4,63,3176,9848,1304,6944,504,4499,9148,39.6,34.8,17.57,190,55.7,52.3,16.4
Fullerton College,CA,114859,1,Western Association of Schools and Colleges Accrediting Commission for Community and Junior Colleges,2,2,Public,West,Suburb,33.875514,-117.918255,,,,0,21969,19.5,3.2,54.9,13.9,8.4,62.2,4285,11056,1138,6010,860,4898,9528,43.7,23.3,28.76,22,54.3,53.3,21
Glendale Community College,CA,115001,1,Western Association of Schools and Colleges Accrediting Commission for Community and Junior Colleges,2,2,Public,West,City,34.16745,-118.227666,,,,0,12996,47.8,2.2,31.9,8,10.2,49.8,2825,9888,1175,6335,993,4944,8868,29.4,34.9,28.72,90,56.2,60.2,12.4
Grossmont College,CA,115296,1,Western Association of Schools and Colleges Accrediting Commission for Community and Junior Colleges,2,2,Public,West,Suburb,32.815246,-117.006277,,,,0,16304,39.1,6.1,35.4,8,11.5,64.6,3011,9956,1386,7196,364,2875,7657,34,24.8,26.72,82,60,55,14.9
Hartnell College,CA,115393,1,Western Association of Schools and Colleges Accrediting Commission for Community and Junior Colleges,2,2,Public,West,City,36.675091,-121.666054,,,,0,11218,22,2.1,64,4.8,7,70.7,9323,16171,1420,7670,439,4112,8161,33.4,21.1,31.09,,56.3,64.8,24.4
Imperial Valley College,CA,115861,1,Western Association of Schools and Colleges Accrediting Commission for Community and Junior Colleges,2,2,Public,West,Rural,32.827209,-115.503563,,,,0,7360,4.1,1.7,90.9,0.7,2.6,49.5,3306,10734,1142,5774,440,4670,8347,59.3,53,27.29,,54.1,60.9,17.1
Interior Designers Institute,CA,116226,1,Accrediting Commission of Career Schools and Colleges,2,3,Profit,West,City,33.641393,-117.865722,,,,0,208,69.7,1.9,11.1,13,4.3,69.7,,,18250,18250,21047,2886,7081,,23.6,,32,,,30.4
Reedley College,CA,117052,1,Western Association of Schools and Colleges Accrediting Commission for Community and Junior Colleges,2,2,Public,West,Town,36.605428,-119.458555,,,,0,8624,18.1,2.3,71.2,5.3,3.2,64.8,2465,9526,1304,6944,515,4843,8831,41.5,33.5,24.34,47,58.8,54,21
Lake Tahoe Community College,CA,117195,1,Western Association of Schools and Colleges Accrediting Commission for Community and Junior Colleges,2,2,Public,West,Rural,38.926797,-119.972574,,,,0,1810,51.2,4.5,28.4,6.6,9.4,69.2,5980,12088,1224,7269,1556,5582,6838,21.7,21.3,29.09,,58.5,46.8,13.5
Laney College,CA,117247,1,Western Association of Schools and Colleges Accrediting Commission for Community and Junior Colleges,2,2,Public,West,City,37.797257,-122.26283,,,,0,8817,15.3,21.1,20.7,31.5,11.5,80.6,6077,12877,1230,7110,1329,5762,8577,38.3,22.4,24.58,34,56.5,61.2,10.6
Lassen Community College,CA,117274,1,Western Association of Schools and Colleges Accrediting Commission for Community and Junior Colleges,2,2,Public,West,Rural,40.432053,-120.633271,,,,0,2187,40.1,16.9,29.5,3,10.5,72.3,9180,15788,1127,5951,1094,5036,7528,36.8,12.8,24.31,16,48,54.9,17.5
Long Beach City College,CA,117645,1,Western Association of Schools and Colleges Accrediting Commission for Community and Junior Colleges,2,2,Public,West,City,33.833593,-118.135633,,,,0,23312,13.4,10.9,59.3,10.2,6.4,60.1,4409,11049,1188,7500,713,4318,6745,33.8,33.6,18.92,58,56.7,56.4,16.4
Los Angeles Harbor College,CA,117690,1,Western Association of Schools and Colleges Accrediting Commission for Community and Junior Colleges,2,2,Public,West,City,33.784201,-118.28186,,,,0,7354,11.3,10.2,59.6,9.2,9.7,67.2,8549,15062,1220,7538,900,6243,9205,30.6,27.1,23.02,35,58.4,55.4,18.6
Los Angeles Pierce College,CA,117706,1,Western Association of Schools and Colleges Accrediting Commission for Community and Junior Colleges,2,2,Public,West,City,34.183949,-118.575071,,,,0,16439,25.3,5,50,9.2,10.5,67.7,7984,14892,1220,7770,816,5615,9121,35,30,30.02,179,55.3,55.5,15.5
Los Angeles Southwest College,CA,117715,1,Western Association of Schools and Colleges Accrediting Commission for Community and Junior Colleges,2,2,Public,West,Suburb,33.929586,-118.304674,,,,0,5138,2.1,49.3,38.6,1.6,8.4,73.2,6003,12416,1220,7538,362,7711,8808,26.1,38.9,12.12,75,70.3,58.3,11.8
Los Angeles County College of Nursing and Allied Health,CA,117803,1,Western Association of Schools and Colleges Accrediting Commission for Community and Junior Colleges,2,2,Public,West,City,34.062647,-118.211852,,,,0,208,19.7,7.7,36.1,29.8,6.7,100,,,,,4128,30280,10513,100,39,,78,74.8,45.8,19.2
Los Angeles Mission College,CA,117867,1,Western Association of Schools and Colleges Accrediting Commission for Community and Junior Colleges,2,2,Public,West,City,34.314668,-118.4195,,,,0,8624,10.3,2.7,76.3,3.8,7,74.4,7505,13876,1220,7538,490,6030,8615,25.3,27.6,18.61,45,58.8,69.9,18.1
Los Medanos College,CA,117894,1,Western Association of Schools and Colleges Accrediting Commission for Community and Junior Colleges,2,2,Public,West,Suburb,38.006474,-121.860967,,,,0,8110,25.4,13.5,41.7,10.1,9.3,65,5253,11427,1312,8424,696,7306,8710,37.4,28.1,33.62,39,57.9,51.3,16.2
College of Marin,CA,118347,1,Western Association of Schools and Colleges Accrediting Commission for Community and Junior Colleges,2,2,Public,West,Suburb,37.954897,-122.549149,,,,0,4190,50.8,3.4,29.4,7.4,9,69.6,10373,17803,1490,9320,1260,10707,10306,41.8,12.9,29.56,62,59.7,46.4,15.5
Mendocino College,CA,118684,1,Western Association of Schools and Colleges Accrediting Commission for Community and Junior Colleges,2,2,Public,West,Rural,39.188989,-123.228809,,,,0,2983,55.5,1.9,31.5,2.2,9,66.3,7907,15151,1423,7063,571,7890,7380,20,27.4,22.12,62,61.2,54.5,16.1
Merced College,CA,118718,1,Western Association of Schools and Colleges Accrediting Commission for Community and Junior Colleges,2,2,Public,West,City,37.3353,-120.476464,,,,0,9914,20.9,3.1,61.1,9.5,5.5,53.6,8686,15474,1150,6115,645,4975,7891,36.6,39.9,24.69,,56.8,59.4,18
Mission College,CA,118930,1,Western Association of Schools and Colleges Accrediting Commission for Community and Junior Colleges,2,2,Public,West,City,37.391935,-121.980783,,,,0,5993,16.4,3.8,27.5,43.1,9.2,79.8,8256,15181,1185,6105,1649,9027,9075,40.1,18.5,24.49,19,58.9,56,15.7
Modesto Junior College,CA,118976,1,Western Association of Schools and Colleges Accrediting Commission for Community and Junior Colleges,2,2,Public,West,City,37.651056,-121.009792,,,,0,16425,36.3,3.5,51.1,6,3.1,65.7,8435,14942,1162,6778,547,3843,8813,45.8,37.5,18.88,,59.7,59.9,16.4
Monterey Peninsula College,CA,119067,1,Western Association of Schools and Colleges Accrediting Commission for Community and Junior Colleges,2,2,Public,West,Suburb,36.590558,-121.884931,,,,0,6856,36.8,3.4,41.8,7.6,10.4,66.4,5425,12373,1176,6792,998,5607,8489,31,18.6,26.73,25,57.1,53.9,20.6
Moorpark College,CA,119137,1,Western Association of Schools and Colleges Accrediting Commission for Community and Junior Colleges,2,2,Public,West,Suburb,34.301146,-118.834528,,,,0,13378,48.1,2,34.8,7.7,7.4,56.6,2283,8800,1388,7050,969,3769,8468,33.5,18.6,37.72,92,54.9,46.4,20.7
Mt San Antonio College,CA,119164,1,Western Association of Schools and Colleges Accrediting Commission for Community and Junior Colleges,2,2,Public,West,Suburb,34.047764,-117.846629,,,,0,26865,10.7,3.7,62.3,17.7,5.7,62.6,3023,10109,1349,8741,946,7469,10137,38.9,33.3,32.36,137,53.7,54.9,19.5
Mt San Jacinto Community College District,CA,119216,1,Western Association of Schools and Colleges Accrediting Commission for Community and Junior Colleges,2,2,Public,West,Suburb,33.806748,-116.971169,,,,0,14620,28.9,6.5,50.4,6.2,8.1,61.1,5224,11710,1386,8946,573,4107,8224,21.3,35.2,26.15,,61,52,17.8
Napa Valley College,CA,119331,1,Western Association of Schools and Colleges Accrediting Commission for Community and Junior Colleges,2,2,Public,West,City,38.274081,-122.274381,,,,0,5237,28.9,5.5,42.5,15,8.2,62.2,10775,17453,1142,6758,1061,4495,9009,31.2,20.7,33.65,49,58.8,51.1,22.2
Ohlone College,CA,120290,1,Western Association of Schools and Colleges Accrediting Commission for Community and Junior Colleges,2,2,Public,West,Suburb,37.52773,-121.916339,,,,0,8026,17.2,3.6,24.4,41.9,12.9,58.3,9864,16933,1162,6730,1659,4537,11077,26.7,14.5,41.42,,57.4,48,19.5
Oxnard College,CA,120421,1,Western Association of Schools and Colleges Accrediting Commission for Community and Junior Colleges,2,2,Public,West,City,34.166104,-119.157604,,,,0,6809,14.7,2.3,74,5,4,69.2,1973,9000,1388,7050,325,4552,8524,41.1,31.4,23.83,,53.9,64,22.2
Pasadena City College,CA,121044,1,Western Association of Schools and Colleges Accrediting Commission for Community and Junior Colleges,2,2,Public,West,City,34.144552,-118.118196,,,,0,25202,14.8,3.6,50.8,22.7,8.1,59.2,6742,13623,1348,7004,1208,4202,8859,38.6,30.3,36.2,67,54.3,56.4,18.8
Platt College-San Diego,CA,121275,1,Accrediting Commission of Career Schools and Colleges,2,3,Profit,West,City,32.76373,-117.063483,,,,0,178,41.6,7.3,26.4,12.4,12.4,0,38270,42402,17235,17235,13821,4498,3714,47.6,55,82.98,120,34.1,44.8,22.3
Porterville College,CA,121363,1,Western Association of Schools and Colleges Accrediting Commission for Community and Junior Colleges,2,2,Public,West,City,36.049256,-119.014368,,,,0,3304,16.6,0.9,75.5,3.5,3.5,51.4,1659,8127,1322,7258,358,5373,9412,43.2,46.6,28.06,,60.3,63,18.3
Santa Ana College,CA,121619,1,Western Association of Schools and Colleges Accrediting Commission for Community and Junior Colleges,2,2,Public,West,City,33.759309,-117.887558,,,,0,25885,19.3,1.5,53.1,7.3,18.8,79.2,4393,10383,1142,8032,682,6166,9645,29,12.6,25.43,80,54.1,69.6,22.6
College of the Redwoods,CA,121707,1,Western Association of Schools and Colleges Accrediting Commission for Community and Junior Colleges,2,2,Public,West,Rural,40.698427,-124.195293,,,,0,3877,56.1,3.9,20.8,3.3,16.1,59.1,5768,12249,1182,6822,1059,7167,8219,24.2,36.1,20.09,90,54.1,46.9,12.6
Rio Hondo College,CA,121886,1,Western Association of Schools and Colleges Accrediting Commission for Community and Junior Colleges,2,2,Public,West,Suburb,34.019821,-118.033506,,,,0,17807,7.2,2.1,75.5,6.5,8.6,75.9,5111,11702,1360,6960,674,5673,9421,34.8,23.8,19.67,30,54.2,68.3,19.4
Riverside City College,CA,121901,1,Western Association of Schools and Colleges Accrediting Commission for Community and Junior Colleges,2,2,Public,West,City,33.970918,-117.384323,,,,0,18234,20.4,7.4,62,5.7,4.7,68.9,5978,12523,1420,8440,725,4777,10386,34,31,27.9,190,60.2,55.7,19.2
Sacramento City College,CA,122180,1,Western Association of Schools and Colleges Accrediting Commission for Community and Junior Colleges,2,2,Public,West,City,38.541096,-121.491139,,,,0,19408,26.4,10,32.4,19.5,11.7,73.8,6096,12587,1104,8208,520,3863,8339,42.6,24.2,24.45,157,56.8,50.6,14.4
San Diego City College,CA,122339,1,Western Association of Schools and Colleges Accrediting Commission for Community and Junior Colleges,2,2,Public,West,City,32.717403,-117.152733,,,,0,13055,22.3,9.2,51.4,9.5,7.6,75.2,4804,11899,1142,5894,679,7723,9036,31.7,29.6,22.78,142,56.1,58.2,15
San Diego Mesa College,CA,122375,1,Western Association of Schools and Colleges Accrediting Commission for Community and Junior Colleges,2,2,Public,West,City,32.803825,-117.169165,,,,0,19856,31.6,6.6,37.2,14.7,10,71.9,5423,12286,1142,5894,504,6419,9217,32,18.9,23.18,127,53.3,48.8,18.7
San Diego Miramar College,CA,122384,1,Western Association of Schools and Colleges Accrediting Commission for Community and Junior Colleges,2,2,Public,West,City,32.909757,-117.120261,,,,0,13213,37.3,4.8,27.6,20,10.3,79.7,5384,12306,1142,5894,552,7258,8992,30.2,17.2,39.25,78,47.9,44.6,18.4
San Joaquin Delta College,CA,122658,1,Western Association of Schools and Colleges Accrediting Commission for Community and Junior Colleges,2,2,Public,West,City,37.995129,-121.318266,,,,0,15003,20.7,8.1,47.1,16.6,7.4,58.9,10066,17175,1104,6720,545,4098,9833,57.3,31,26.44,224,59.8,56.4,17
San Joaquin Valley College-Visalia,CA,122685,1,Western Association of Schools and Colleges Accrediting Commission for Community and Junior Colleges,2,2,Profit,West,Rural,36.328049,-119.384981,,,,0,5239,23.1,7.9,51.1,5.8,12,0,19745,23835,30175,30175,8402,4432,5321,28.6,71.6,50.94,5777,72.3,59.1,15.7
Santa Barbara Business College-Bakersfield,CA,122834,1,Accrediting Council for Independent Colleges and Schools,2,3,Profit,West,City,35.359544,-119.061264,,,,0,332,16.3,6.9,70.5,4.2,2.1,0,15217,21566,10000,10000,15876,3514,4986,27.1,88.5,53.64,379,70.4,58,17
Santa Barbara Business College-Santa Maria,CA,122852,1,Accrediting Commission of Career Schools and Colleges,2,3,Profit,West,City,34.937806,-120.433296,,,,0,78,19.2,1.3,78.2,1.3,0,0,13652,20353,10000,10000,16459,5401,5043,,69.2,70.45,93,75.6,67.7,19.4
Santa Barbara City College,CA,122889,1,Western Association of Schools and Colleges Accrediting Commission for Community and Junior Colleges,2,2,Public,West,City,34.406788,-119.698045,,,,0,13344,40,3.2,35.8,5.5,15.5,52.6,9985,16141,1374,8326,2288,7459,8150,56.8,21.5,35.14,358,54.4,45.7,22.9
Santa Monica College,CA,122977,1,Western Association of Schools and Colleges Accrediting Commission for Community and Junior Colleges,2,2,Public,West,City,34.017022,-118.469765,,,,0,27190,25.3,8.6,39.8,9.3,17,59.9,4868,11564,1142,8558,2845,5628,10844,24.7,23.3,29.96,110,54,50.2,16.9
College of the Sequoias,CA,123217,1,Western Association of Schools and Colleges Accrediting Commission for Community and Junior Colleges,2,2,Public,West,City,36.323877,-119.315182,,,,0,10727,21.9,2.4,68.1,3.4,4.3,52.6,1659,8369,1390,7186,488,5621,8838,44.1,40.7,29.16,96,56.2,57.4,19.1
Shasta College,CA,123299,1,Western Association of Schools and Colleges Accrediting Commission for Community and Junior Colleges,2,2,Public,West,Suburb,40.625731,-122.317982,,,,0,7820,66.8,1.8,17,3.5,11,57.9,4723,10928,1185,6801,795,4229,7511,41.5,33.9,19.8,102,59.7,52.7,13.7
Sierra College,CA,123341,1,Western Association of Schools and Colleges Accrediting Commission for Community and Junior Colleges,2,2,Public,West,Suburb,38.790773,-121.211688,,,,0,16383,56.2,2.9,26.6,6,8.4,61.4,4687,11535,1142,6214,1270,4073,7473,25.9,27.3,34.96,17,58.6,44.7,17.3
College of the Siskiyous,CA,123484,1,Western Association of Schools and Colleges Accrediting Commission for Community and Junior Colleges,2,2,Public,West,Town,41.413005,-122.38909,,,,0,1791,54.9,5.6,18,6.1,15.3,55.1,5760,12433,1154,6762,1392,9196,7858,30.2,28.2,29.52,106,48.9,44.6,18.7
Skyline College,CA,123509,1,Western Association of Schools and Colleges Accrediting Commission for Community and Junior Colleges,2,2,Public,West,Suburb,37.63042,-122.467335,,,,0,8084,18,2.7,30.6,36.6,12.2,68.4,1945,8929,1447,8136,1229,6126,10191,41.2,15.9,24.5,29,54.6,52.8,19.5
San Bernardino Valley College,CA,123527,1,Western Association of Schools and Colleges Accrediting Commission for Community and Junior Colleges,2,2,Public,West,City,34.086353,-117.313248,,,,0,11856,12.4,11.8,66.6,4.6,4.7,64.6,7208,14091,1238,5500,584,3753,8105,21.8,31.9,18.94,,60.6,59.5,16.9
Solano Community College,CA,123563,1,Western Association of Schools and Colleges Accrediting Commission for Community and Junior Colleges,2,2,Public,West,Suburb,38.235881,-122.122368,,,,0,7962,28,13,30.2,16,12.8,64.5,6232,12408,1140,6324,702,8171,8153,39.5,19,27.53,47,64.5,48.5,19.4
Southwestern College,CA,123800,1,Western Association of Schools and Colleges Accrediting Commission for Community and Junior Colleges,2,2,Public,West,Suburb,32.640281,-116.996803,,,,0,16411,11.2,4.7,68.2,10.2,5.7,58.3,4219,11345,1338,6602,385,4653,9095,100,31.9,22.15,65,56.4,56.5,19.4
Taft College,CA,124113,1,Western Association of Schools and Colleges Accrediting Commission for Community and Junior Colleges,2,2,Public,West,Town,35.149343,-119.459751,,,,0,5704,30.2,5.5,57.6,2.2,4.6,77.7,5247,12097,1410,8430,818,6828,9299,40,18.5,38.62,,66.9,62.7,21.2
Epic Bible College,CA,124487,1,Transnational Association of Christian Colleges and Schools,2,4,Private,West,Suburb,38.645152,-121.362642,,,,0,143,41.3,29.4,14.7,2.8,11.9,80.4,7601,13535,9689,9689,13311,5392,2098,37.9,83.6,0,20,50.4,46.8,19.9
Ventura College,CA,125028,1,Western Association of Schools and Colleges Accrediting Commission for Community and Junior Colleges,2,2,Public,West,City,34.277393,-119.230604,,,,0,12072,26.5,1.9,61.9,4.5,5.2,65.3,1961,8715,1388,7050,597,3988,8286,33.5,24,34.83,127,55.8,56.7,22.3
Victor Valley College,CA,125091,1,Western Association of Schools and Colleges Accrediting Commission for Community and Junior Colleges,2,2,Public,West,City,34.472231,-117.261456,,,,0,9534,25.9,10,55.6,2.3,6.2,59.7,8754,15451,1126,5638,428,5043,8326,27.2,49.4,15.76,34,60.1,56.5,14.7
Berkeley City College,CA,125170,1,Western Association of Schools and Colleges Accrediting Commission for Community and Junior Colleges,2,2,Public,West,City,37.869769,-122.269877,,,,0,5445,24.9,13.9,24.7,25,11.6,80.1,8720,15314,1230,7110,1250,3859,8448,31.9,17.7,24.62,20,56.3,46.8,13.9
West Hills College-Coalinga,CA,125462,1,Western Association of Schools and Colleges Accrediting Commission for Community and Junior Colleges,2,2,Public,West,Town,36.147891,-120.356747,,,,0,3031,16.2,5.2,70.8,2.9,4.9,72.9,7728,14477,1380,10860,460,4242,8046,32.4,27.1,28.52,72,50.3,63.7,21.9
West Valley College,CA,125499,1,Western Association of Schools and Colleges Accrediting Commission for Community and Junior Colleges,2,2,Public,West,Suburb,37.26398,-122.008324,,,,0,6799,40.4,2.4,29.7,18.5,9,68.9,7642,14508,1186,5239,1495,8186,9487,43.4,12.6,32.14,16,58.1,45.9,17.6
Yuba College,CA,126119,1,Western Association of Schools and Colleges Accrediting Commission for Community and Junior Colleges,2,2,Public,West,Suburb,39.126536,-121.53964,,,,0,4889,37.5,3,35.3,14.7,9.6,69.1,3887,10528,1124,6284,449,6948,6758,37,39,23.42,12,57.8,58.4,18.5
Arapahoe Community College,CO,126289,1,Higher Learning Commission,2,2,Public,West,Suburb,39.607505,-105.018631,,,,0,8409,45.6,2.7,17.7,2.1,31.8,80.1,7829,12622,3676,14441,5928,4435,7193,21.4,16.7,25.82,750,63.5,38.4,29.7
Bel-Rea Institute of Animal Technology,CO,126359,1,Accrediting Commission of Career Schools and Colleges,2,2,Profit,West,Suburb,39.686194,-104.876207,0.3258,,,0,321,70.4,1.9,11.8,0.3,15.6,0,21759,24515,11963,11963,9856,1556,5176,55.6,44.9,30.36,187,87.9,35.9,30.2
Spartan College of Aeronautics and Technology,CO,126605,1,Accrediting Commission of Career Schools and Colleges,2,2,Profit,West,City,39.914822,-105.119096,,,,0,319,67.7,3.5,11.3,1.6,16,0,22709,26026,15743,15743,14878,5832,3399,100,11.8,32.46,244,5.9,42.6,25.9
Colorado Northwestern Community College,CO,126748,1,Higher Learning Commission,2,2,Public,West,Rural,40.081112,-108.790048,,,,0,637,71.3,2.8,15.7,0.9,9.3,31.7,11490,16974,3943,6257,6877,7619,5784,100,22,36.67,198,64.3,45.9,35.5
Colorado School of Trades,CO,126784,1,Accrediting Commission of Career Schools and Colleges,2,2,Profit,West,City,39.74181,-105.104174,,,,0,156,36.5,1.9,18.6,2.6,40.4,0,17757,20635,20520,20520,16337,4819,4010,,42,82.35,93,,31.6,22.4
Community College of Aurora,CO,126863,1,Higher Learning Commission,2,2,Public,West,City,39.71788,-104.802673,,,,0,4711,32.3,22.3,25.6,5.1,14.7,70.5,8828,14747,3702,13896,5133,4727,6670,100,28.4,28.52,421,61.5,51.1,25.2
CollegeAmerica-Denver,CO,126872,1,Accrediting Commission of Career Schools and Colleges,2,2,Private,West,City,39.691571,-104.941168,,,,0,139,28.1,14.4,44.6,2.2,10.8,0,27832,31506,16968,16968,21874,8431,10163,31.3,69.2,38.55,264,66.5,56,18.6
Community College of Denver,CO,126942,1,Higher Learning Commission,2,3,Public,West,City,39.741413,-105.001044,,,,0,6656,35,12.5,31.2,5.9,15.5,65.1,9130,15571,3909,14673,5169,4673,5166,27.2,62.6,10.08,751,59,49.4,20.6
Lamar Community College,CO,127389,1,Higher Learning Commission,2,2,Public,West,Town,38.068886,-102.616144,,,,0,531,52,9.2,27.7,0.2,10.9,26.9,8966,15610,3908,6221,3537,5316,5278,33.3,32.2,40,115,52.2,47.2,29.5
Intellitec College-Colorado Springs,CO,128179,1,Accrediting Commission of Career Schools and Colleges,2,2,Profit,West,City,38.832183,-104.78721,,,,0,635,56.7,19.5,14.8,2.7,6.3,0,17633,21135,29350,29350,10174,2721,4178,40,45.3,57.26,335,22.6,47.4,19.3
Bais Binyomin Academy,NY,128586,1,Association of Advanced Rabbinical and Talmudic Schools,2,2,Private,Northeast,Suburb,41.1230978,-74.0811719,0.8,,,0,25,100,0,0,0,0,0,,,8000,8000,6502,19403,4020,,0,44.44,,,,
Goodwin College,CT,129154,1,New England Commission on Higher Education,2,3,Private,Northeast,City,41.742977,-72.64032,,,,0,3240,47.4,22.5,24.5,2.1,3.5,87.8,19914,31754,20888,20888,21606,16462,5583,32.2,49.9,25.83,1181,83.1,52.8,28.7
Capital Community College,CT,129367,1,New England Commission on Higher Education,2,2,Public,Northeast,City,41.768397,-72.672734,,,,0,2946,18.3,35.2,30.8,4.7,11.1,76.7,6710,12420,4356,12908,2327,8475,7376,28.3,54.6,6.02,103,70.8,57.7,18
Housatonic Community College,CT,129543,1,New England Commission on Higher Education,2,2,Public,Northeast,City,41.175228,-73.191003,,,,0,4780,27.3,32.1,34.6,2.8,3.2,63.9,7330,10547,4276,12848,2547,6034,7084,35.4,49.9,12.45,71,60.8,57.8,20
Manchester Community College,CT,129695,1,New England Commission on Higher Education,2,2,Public,Northeast,Suburb,41.761625,-72.561939,,,,0,5611,48.1,18.2,21.6,5.2,7,66.1,4387,9585,4276,12828,3554,6339,7726,21.7,38.7,18.78,62,55.9,51.2,22.1
Naugatuck Valley Community College,CT,129729,1,New England Commission on Higher Education,2,2,Public,Northeast,Suburb,41.549749,-73.072963,,,,0,5754,46.4,10.6,31.4,2.9,8.8,62.4,5451,10885,4316,12868,3430,7251,8808,22.3,40.7,17.17,128,58.7,55.4,21.7
Middlesex Community College,CT,129756,1,New England Commission on Higher Education,2,2,Public,Northeast,City,41.539516,-72.611838,,,,0,2304,61.2,9.2,20.7,3.1,5.9,57.7,4243,9595,4276,12828,3427,6560,8021,22.6,36.5,17.54,63,61,52.4,20.3
Three Rivers Community College,CT,129808,1,New England Commission on Higher Education,2,2,Public,Northeast,City,41.509945,-72.103039,,,,0,3842,61.2,8.7,16.9,4.2,9,65.5,7351,12233,4356,12888,3085,7023,7571,24.4,44,14.53,92,59.6,54.5,20.5
Norwalk Community College,CT,130004,1,New England Commission on Higher Education,2,2,Public,Northeast,City,41.102574,-73.450965,,,,0,4719,30.1,18.6,39.6,4.2,7.5,59.6,7114,12436,4336,12888,3895,6426,7944,21.8,36.9,9.72,44,61.1,53.9,21.5
Northwestern Connecticut Community College,CT,130040,1,New England Commission on Higher Education,2,2,Public,Northeast,Town,41.920668,-73.058734,,,,0,1002,82.2,2,10.1,2.2,3.5,62.6,5340,10152,4306,12858,3014,8929,7717,29.2,31.5,23.03,33,70.8,45,23.5
Quinebaug Valley Community College,CT,130217,1,New England Commission on Higher Education,2,2,Public,Northeast,Suburb,41.82623,-71.889673,,,,0,1401,73.2,3.6,15.9,1.5,5.9,64.2,6075,11623,4306,12858,2934,8266,8394,100,48.2,22.08,,56.5,59.1,14.9
Gateway Community College,CT,130396,1,New England Commission on Higher Education,2,2,Public,Northeast,City,41.303785,-72.927682,,,,0,6346,38.5,25,26.4,3.8,6.3,66.2,6824,12049,4316,12868,3118,6959,8141,20,45.4,10.4,113,57.8,58.2,19.6
St Vincent's College,CT,130448,1,New England Commission on Higher Education,2,3,Private,Northeast,City,41.201198,-73.201106,0.973,,960,0,472,48.1,11.4,13.4,3.4,23.7,95.1,21352,26456,15563,15563,15963,7652,6350,31.4,32.8,0,,87.9,50.1,35.7
Tunxis Community College,CT,130606,1,New England Commission on Higher Education,2,2,Public,Northeast,Suburb,41.705498,-72.87754,,,,0,3436,58.2,8.8,23,3.7,6.4,55.1,6912,11548,4276,12828,3548,6763,8095,100,38.1,16.79,99,56.9,54.9,22.5
Delaware Technical Community College-Terry,DE,130907,1,Middle States Commission on Higher Education,2,2,Public,Northeast,City,39.198371,-75.56012,,,,0,12408,52,25.5,11.8,3,7.8,62.4,8597,12570,4848,11372,5410,9184,7056,36.6,39.1,13.21,907,64.4,49.9,25.6
Eastern Florida State College,FL,132693,1,Southern Association of Colleges and Schools Commission on Colleges,2,3,Public,Southeast,Suburb,28.38361,-80.756474,,,,0,12306,64.6,10.9,13.8,2.1,8.7,61.1,5974,10069,2496,9739,1896,4987,6007,28.8,37.8,41.72,2264,59.4,40,22
Broward College,FL,132709,1,Southern Association of Colleges and Schools Commission on Colleges,2,3,Public,Southeast,City,26.119422,-80.14183,,,,0,35127,16.7,32.7,36.6,2.8,11.2,68.5,9505,13717,1415,4476,1671,3696,6719,25.5,49.4,30.47,3459,59,48.7,20.7
College of Central Florida,FL,132851,1,Southern Association of Colleges and Schools Commission on Colleges,2,3,Public,Southeast,City,29.166079,-82.175692,,,,0,5932,59.7,13.5,17.1,2.1,7.6,54.2,7571,11881,2570,10126,1397,4464,5957,46.9,45.3,37.14,950,60.8,48.8,22
Chipola College,FL,133021,1,Southern Association of Colleges and Schools Commission on Colleges,2,3,Public,Southeast,Town,30.789228,-85.23139,,,,0,1482,71.5,18.2,4.7,0.7,4.9,46.4,3253,9027,3120,8950,1625,5698,5363,23.4,35.7,49.54,16,61.9,50.8,21.7
Daytona State College,FL,133386,1,Southern Association of Colleges and Schools Commission on Colleges,2,3,Public,Southeast,City,29.203275,-81.049685,,,,0,10892,62.5,13.2,17.1,2,5.2,57.7,6636,10522,3109,11998,1900,5166,6779,30.1,40.8,35.76,2728,60.6,42,21.3
Florida SouthWestern State College,FL,133508,1,Southern Association of Colleges and Schools Commission on Colleges,2,3,Public,Southeast,Suburb,26.552403,-81.887102,,,,0,12618,45.7,11.8,31.4,1.7,9.4,62.3,8664,13223,3401,12979,1585,3710,6419,24.9,33.5,34.81,1566,62.1,50.4,25.9
Florida State College at Jacksonville,FL,133702,1,Southern Association of Colleges and Schools Commission on Colleges,2,3,Public,Southeast,City,30.334918,-81.659901,,,,0,18789,48,26.1,9.8,4.5,11.7,69,5078,8738,2878,9992,2033,4238,6145,37,33.6,35.1,2672,61.8,44.1,25.1
Florida College,FL,133809,1,Southern Association of Colleges and Schools Commission on Colleges,2,3,Private,Southeast,Suburb,28.034936,-82.383289,0.7376,23,1000,0,505,73.5,6.5,8.9,0.2,10.9,3.2,21665,29164,17142,17142,17963,10351,7158,70.2,31.8,46.97,189,52.4,23.5,66.4
Florida Keys Community College,FL,133960,1,Southern Association of Colleges and Schools Commission on Colleges,2,2,Public,Southeast,Town,24.582748,-81.74446,,,,0,830,52.4,9.5,28.2,1.8,8.1,58.7,10145,14819,3276,13162,3409,9201,6559,32.2,25,32.26,89,58.3,41.8,26.8
Gulf Coast State College,FL,134343,1,Southern Association of Colleges and Schools Commission on Colleges,2,3,Public,Southeast,City,30.185542,-85.727918,,,,0,4028,70.3,11.9,6.7,2.9,8.3,56.3,3588,8539,2370,8633,1482,6211,5057,51.3,32.5,40.14,525,63.6,48.9,22.9
Hillsborough Community College,FL,134495,1,Southern Association of Colleges and Schools Commission on Colleges,2,2,Public,Southeast,City,27.934888,-82.456253,,,,0,23235,34.7,18.3,31.8,2.8,12.4,54.6,5421,9568,2506,9111,2278,3512,6564,25.1,38.9,29.77,2316,60.5,46.3,22.1
Indian River State College,FL,134608,1,Southern Association of Colleges and Schools Commission on Colleges,2,3,Public,Southeast,Suburb,27.42416,-80.358682,,,,0,13631,51.3,16.9,23.5,1.6,6.8,64.3,2041,6276,2764,10201,1346,5047,8243,25.4,36.9,38.98,1326,59.6,48,21.6
Keiser University-Ft Lauderdale,FL,135081,1,Southern Association of Colleges and Schools Commission on Colleges,2,4,Private,Southeast,City,26.185869,-80.163959,,,,0,16625,35.9,21.8,32.9,2,7.4,38.7,29344,33544,19224,19224,13065,4755,5211,66.6,61,58.82,8711,74.3,47.7,21.7
Florida Gateway College,FL,135160,1,Southern Association of Colleges and Schools Commission on Colleges,2,3,Public,Southeast,Town,30.175298,-82.5679,,,,0,2285,72.2,16,6.2,1.4,4.2,63,3897,9312,3100,11747,1434,5093,5533,38,30.3,41.13,190,62.4,55.4,21.6
Lake-Sumter State College,FL,135188,1,Southern Association of Colleges and Schools Commission on Colleges,2,3,Public,Southeast,Suburb,28.828649,-81.797193,,,,0,3774,56.7,9.9,21.1,3.8,8.5,65.6,5648,9981,3172,13276,2088,3907,5135,46.8,27.1,42.57,165,63.4,45.7,25.1
State College of Florida-Manatee-Sarasota,FL,135391,1,Southern Association of Colleges and Schools Commission on Colleges,2,3,Public,Southeast,Suburb,27.43804,-82.590887,,,,0,8493,63.2,9.4,17.7,2.3,7.4,59.2,12877,17646,3074,11606,2305,3748,6578,31.3,48.9,33.49,437,61.7,45.8,23.9
Miami Dade College,FL,135717,1,Southern Association of Colleges and Schools Commission on Colleges,2,3,Public,Southeast,City,25.777717,-80.190856,,,,0,51015,5.5,14.4,70.3,0.9,9,54.9,7023,12480,2838,9661,1729,4384,7102,18.8,49.2,31.19,2784,58.1,48.6,18.4
North Florida Community College,FL,136145,1,Southern Association of Colleges and Schools Commission on Colleges,2,2,Public,Southeast,Rural,30.473841,-83.420732,,,,0,915,65.5,27.9,4.7,0.1,1.9,63.3,3743,9526,3054,11400,1006,6229,4947,57.1,43.9,41.67,,68.8,54.5,17.8
Northwest Florida State College,FL,136233,1,Southern Association of Colleges and Schools Commission on Colleges,2,3,Public,Southeast,Rural,30.540017,-86.47456,,,,0,4075,66.5,8.8,11.3,2.8,10.6,52.4,7709,12816,3133,11940,2093,4936,5585,42,26.4,38.97,225,60.9,43.6,23.7
Palm Beach State College,FL,136358,1,Southern Association of Colleges and Schools Commission on Colleges,2,3,Public,Southeast,Suburb,26.61256,-80.08653,,,,0,26335,32.2,26.3,30.8,2.6,8.2,70.1,3733,9659,2444,8732,1937,3866,6334,28.7,36.6,33.3,1868,59.2,49.4,21.4
Pasco-Hernando State College,FL,136400,1,Southern Association of Colleges and Schools Commission on Colleges,2,3,Public,Southeast,Suburb,28.2751,-82.646727,,,,0,9336,62.8,6.6,21.7,2.4,6.5,61.2,6271,10764,3155,12032,1587,3449,5994,33.9,38.8,32.06,990,61.1,43.1,23.1
Pensacola State College,FL,136473,1,Southern Association of Colleges and Schools Commission on Colleges,2,3,Public,Southeast,City,30.479267,-87.200265,,,,0,7717,63,16.8,7.4,3.3,9.5,57.9,5238,10136,2704,10875,2037,4288,5152,35.7,34.6,30.16,539,63,49.4,20.6
Polk State College,FL,136516,1,Southern Association of Colleges and Schools Commission on Colleges,2,3,Public,Southeast,City,28.032411,-81.711873,,,,0,8388,50.9,17.1,23,2.1,7,64.2,8489,12858,3366,12272,1747,4737,6249,41.1,35.4,27.51,1007,61.9,51.4,24
St Petersburg College,FL,137078,1,Southern Association of Colleges and Schools Commission on Colleges,2,3,Public,Southeast,City,27.90242,-82.717331,,,,0,24824,61.7,14.3,14.4,3.6,6.1,69.3,7247,12040,3352,11607,2146,4688,6937,24.1,38.7,28.58,4334,61.7,44.4,22.6
Santa Fe College,FL,137096,1,Southern Association of Colleges and Schools Commission on Colleges,2,3,Public,Southeast,Suburb,29.681037,-82.433143,,,,0,12925,55.3,14.9,18.5,2.9,8.4,56.8,10130,12829,2563,9189,2599,4237,6033,34.3,30.4,50.48,1924,56.9,41.8,25
Seminole State College of Florida,FL,137209,1,Southern Association of Colleges and Schools Commission on Colleges,2,3,Public,Southeast,City,28.745482,-81.308003,,,,0,15438,46.3,16.2,25.9,2.8,8.9,61.8,8986,12956,3131,11456,2091,4247,6573,27,39.2,36.9,2627,60.8,40.7,24.9
Saint Johns River State College,FL,137281,1,Southern Association of Colleges and Schools Commission on Colleges,2,3,Public,Southeast,Town,29.647516,-81.681387,,,,0,4777,68.3,11.5,10.6,1.9,7.8,64.4,5720,11214,2839,10347,2032,4126,5055,34.8,29.9,34.79,458,65.7,42.9,24.8
South Florida State College,FL,137315,1,Southern Association of Colleges and Schools Commission on Colleges,2,3,Public,Southeast,Rural,27.56974,-81.508667,,,,0,2104,44.7,11.7,37.2,1.6,4.8,60.6,5646,10052,3165,11859,1331,6593,5582,34,45.2,39.54,155,65,55.4,20.7
Tallahassee Community College,FL,137759,1,Southern Association of Colleges and Schools Commission on Colleges,2,2,Public,Southeast,City,30.443866,-84.339,,,,0,10717,47.7,31.1,13.2,1.4,6.6,47.2,4856,8736,2026,8062,1771,4023,6219,25.1,39.9,31.86,1118,53.8,41.9,23.5
Valencia College,FL,138187,1,Southern Association of Colleges and Schools Commission on Colleges,2,3,Public,Southeast,City,28.520898,-81.471466,,,,0,37954,27.1,17.2,39,4.1,12.7,61.8,6267,10712,2474,9383,2301,3531,6551,31.3,39.1,41.34,3659,57.6,42.1,23.2
Abraham Baldwin Agricultural College,GA,138558,1,Southern Association of Colleges and Schools Commission on Colleges,2,3,Public,Southeast,Town,31.481889,-83.528281,0.7021,20,1013,0,3185,81.6,8.1,6.9,0.7,2.7,23.9,8251,13196,3503,10241,3705,5010,5482,77.5,39.4,22.82,873,57.4,34.4,36.1
Albany State University,GA,138716,1,Southern Association of Colleges and Schools Commission on Colleges,2,4,Public,Southeast,City,31.56928,-84.141825,,,,0,5761,20.5,71.2,2.2,0.5,5.6,34.3,11590,16837,5675,16136,4506,8154,5914,82.3,58.5,22.33,1729,66.5,33.5,24.5
Andrew College,GA,138761,1,Southern Association of Colleges and Schools Commission on Colleges,2,2,Private,Southeast,Town,31.772321,-84.795021,0.4051,18,930,0,265,39.6,50.2,4.2,0.4,5.7,14.7,28997,33275,16560,16560,7537,6953,4304,82.5,69.2,17.11,69,49,33,30.2
Atlanta Metropolitan State College,GA,138901,1,Southern Association of Colleges and Schools Commission on Colleges,2,3,Public,Southeast,City,33.70893,-84.404659,,,,0,2238,1.5,88.9,5.1,0.7,3.8,54.4,4730,10497,3416,9880,2326,3974,5351,70.8,65.9,9.02,309,62.9,39.5,16.4
College of Coastal Georgia,GA,139250,1,Southern Association of Colleges and Schools Commission on Colleges,2,3,Public,Southeast,City,31.182745,-81.485973,0.9469,19,937,0,3190,64.3,20.6,5.7,1.6,7.8,33,11689,16672,4496,12918,2604,6316,5952,55.8,47,13.18,531,68.3,37.8,29.1
East Georgia State College,GA,139621,1,Southern Association of Colleges and Schools Commission on Colleges,2,3,Public,Southeast,Town,32.594944,-82.309021,,,,0,2596,40,48.2,5.6,0.8,5.4,19.9,5201,9556,3110,9307,1819,4003,4706,63.2,57.6,6.23,217,58.2,33.1,25.9
Georgia Highlands College,GA,139700,1,Southern Association of Colleges and Schools Commission on Colleges,2,3,Public,Southeast,Rural,34.169791,-85.207356,,,,0,5715,63.1,16.4,13.5,1.6,5.4,51.5,6732,11599,3288,9485,2780,3182,4864,48.6,43.1,8.11,570,64.4,40.8,30.7
Gordon State College,GA,139968,1,Southern Association of Colleges and Schools Commission on Colleges,2,3,Public,Southeast,Town,33.04571,-84.154508,0.8364,17,924,0,3527,49,41.9,3.8,0.9,4.5,26.4,10074,14923,3828,10010,2007,5297,5376,64.8,53.2,14.91,665,63.3,37.8,29.2
Gupton Jones College of Funeral Service,GA,139995,1,American Board of Funeral Service Education Committee on Accreditation,2,2,Private,Southeast,Suburb,33.710709,-84.179775,,,,0,249,29.3,68.3,0,0,2.4,0,16668,20280,11700,11700,12482,3638,3412,,94,63.41,86,65.7,43.6,16.2
Gwinnett College-Lilburn,GA,140003,1,Accrediting Council for Independent Colleges and Schools,2,2,Profit,Southeast,Suburb,33.901271,-84.121874,,,,0,252,13.9,67.1,14.7,3.6,0.8,43.7,21397,25264,9925,9925,8632,1375,1759,28,82.5,41.86,531,90.4,50.3,17.8
Honolulu Community College,HI,141680,1,Western Association of Schools and Colleges Accrediting Commission for Community and Junior Colleges,2,2,Public,West,City,21.321785,-157.87,,,,0,2790,7.4,1.8,10.2,43.3,37.3,58.3,7846,11647,3054,8190,3307,11563,8222,67.8,20.9,16.91,178,42.2,45.6,24.7
Kapiolani Community College,HI,141796,1,Western Association of Schools and Colleges Accrediting Commission for Community and Junior Colleges,2,2,Public,West,City,21.27148,-157.800213,,,,0,5030,8.9,1.1,9.4,40.4,40.2,50.4,6190,10613,3084,8220,4349,9851,8589,56.4,18,20.03,319,60.8,41.8,24.8
Leeward Community College,HI,141811,1,Western Association of Schools and Colleges Accrediting Commission for Community and Junior Colleges,2,2,Public,West,Suburb,21.39267,-157.983771,,,,0,4971,7.7,2.7,15.8,33.8,40,45.6,4586,8940,3084,8220,3282,7452,8355,65.6,25.6,19.96,150,62.6,44.7,26.1
University of Hawaii Maui College,HI,141839,1,Western Association of Schools and Colleges Senior Colleges and University Commission,2,3,Public,West,City,20.88956,-156.477252,,,,0,2621,16.4,0.6,12.9,29.4,40.7,55.6,10510,14924,3158,8294,2938,15380,8250,48,34.4,16.77,326,60.3,49.8,21.7
Windward Community College,HI,141990,1,Western Association of Schools and Colleges Accrediting Commission for Community and Junior Colleges,2,2,Public,West,Suburb,21.407051,-157.813307,,,,0,1395,13.8,1.2,17.6,11.8,55.7,49.6,10283,14913,3064,8200,2805,10912,8152,57.8,26.9,14.39,144,66.9,48,21
College of Eastern Idaho,ID,142179,1,Northwest Commission on Colleges and Universities,2,2,Public,West,City,43.486041,-111.985519,,,,0,698,81.2,0.1,15.2,0.7,2.7,50.4,14210,18245,2494,9056,3040,13292,5874,100,48,53.33,219,58.8,41,25.6
North Idaho College,ID,142443,1,Northwest Commission on Colleges and Universities,2,2,Public,West,City,47.67569,-116.798905,,,,0,3794,79.8,1.3,5.9,1.7,11.3,49.9,7931,12271,3494,8426,2800,7742,6463,39.9,34.3,23.12,569,57.1,41.7,27.6
College of Southern Idaho,ID,142559,1,Northwest Commission on Colleges and Universities,2,2,Public,West,Town,42.579837,-114.473901,,,,0,3696,63.2,1.3,25.7,2,7.9,48.9,7114,11674,3120,6720,2639,6099,5961,28.8,24.1,26.49,585,60.5,41.6,30.3
Black Hawk College,IL,143279,1,Higher Learning Commission,2,2,Public,Midwest,City,41.477283,-90.447799,,,,0,3256,67.4,10.4,14.2,2.3,5.7,48.4,6301,11565,4470,7650,2323,5700,6725,47.2,27.7,26.58,239,63,44.2,25.8
Carl Sandburg College,IL,143613,1,Higher Learning Commission,2,2,Public,Midwest,Rural,40.98128,-90.408203,,,,0,1385,73.7,8.2,8,0.9,9.2,38.1,2478,9795,4530,7554,3339,4298,4866,25,48.6,30.54,192,62,42.6,22
City Colleges of Chicago-Harry S Truman College,IL,144184,1,Higher Learning Commission,2,2,Public,Midwest,City,41.964502,-87.659107,,,,0,3068,17.9,29.1,34.9,11.6,6.5,51.7,4941,10163,3506,11906,1820,3791,8845,23.5,18,17.56,181,60.4,51,15.2
City Colleges of Chicago-Harold Washington College,IL,144209,1,Higher Learning Commission,2,2,Public,Midwest,City,41.886067,-87.626596,,,,0,7360,9.5,28,50,6.8,5.8,36.7,4143,9340,3506,11906,1548,4343,8969,24.7,44.4,17.96,228,56.7,54.9,18.2
City Colleges of Chicago-Wilbur Wright College,IL,144218,1,Higher Learning Commission,2,2,Public,Midwest,City,41.958774,-87.787868,,,,0,6660,20.4,7.7,60.3,6.8,4.9,51.4,4143,9051,3506,11906,1523,3676,9293,23.5,29.7,16.63,150,55.5,57.3,21.9
Danville Area Community College,IL,144564,1,Higher Learning Commission,2,2,Public,Midwest,City,40.127539,-87.587884,,,,0,1732,67,17.7,4.9,1.6,8.8,44.6,5050,9516,4775,7775,2352,5707,6341,51.2,30.8,33.78,158,61.7,49.3,22.4
College of DuPage,IL,144865,1,Higher Learning Commission,2,2,Public,Midwest,Suburb,41.841577,-88.071635,,,,0,16628,52.2,8.4,23.5,10.3,5.7,57.8,6310,11650,4050,11760,3532,8296,11203,21.4,20.8,22.61,177,54.1,42.6,28.6
Elgin Community College,IL,144944,1,Higher Learning Commission,2,2,Public,Midwest,City,42.018066,-88.32194,,,,0,7648,43.8,4.4,38.2,6.3,7.3,60.9,5640,8746,3108,11964,2936,7963,10871,24.4,24.5,36.87,359,54.6,52.2,28
Fox College,IL,145239,1,Higher Learning Commission,2,2,Profit,Midwest,Suburb,41.771488,-87.744728,0.6053,,,0,433,58.9,10.9,22.2,5.8,2.3,0,13744,19365,15160,15160,13547,9529,5945,78.4,53.3,70,411,83.1,42.5,27.4
Illinois Central College,IL,145682,1,Higher Learning Commission,2,2,Public,Midwest,Suburb,40.707235,-89.52485,,,,0,6875,74.3,12.1,7.1,1.4,5.1,56.7,9740,14111,4290,10800,4133,5472,7577,31,25.4,36.75,479,58.9,42.6,25.9
Olney Central College,IL,145707,1,Higher Learning Commission,2,2,Public,Midwest,Town,38.735913,-88.099589,,,,0,724,92,2.6,1.9,0.8,2.6,30.7,3135,7264,3810,11734,1221,5346,6489,40.4,32.9,58.55,116,61.5,40.8,27.7
John A Logan College,IL,146205,1,Higher Learning Commission,2,2,Public,Midwest,Suburb,37.747453,-89.09021,,,,0,3049,78.9,12.7,1.9,1.2,5.4,37.3,6324,11388,3766,6106,1834,4238,6909,28.5,31.9,23.73,23,58.8,43.5,16.2
John Wood Community College,IL,146278,1,Higher Learning Commission,2,2,Public,Midwest,Rural,39.913741,-91.335828,,,,0,1519,90.4,5.1,1.8,0.5,2.1,40.9,7593,12031,4800,8100,4157,7439,6303,27.6,43.9,39.04,296,59.3,46.6,29
Joliet Junior College,IL,146296,1,Higher Learning Commission,2,2,Public,Midwest,Suburb,41.500535,-88.180985,,,,0,11632,56.4,9.7,25.1,2.5,6.3,58.4,4280,7802,4320,12030,3165,7091,10448,31.6,18.9,16.33,295,59,46.8,28
Kaskaskia College,IL,146366,1,Higher Learning Commission,2,2,Public,Midwest,Rural,38.562112,-89.191974,,,,0,1847,91.2,4.6,1.4,0.6,2.2,37,6074,10409,4470,12330,2345,7071,8521,42.4,25.5,30.38,55,65.6,43.5,20.7
Kishwaukee College,IL,146418,1,Higher Learning Commission,2,2,Public,Midwest,Rural,41.938234,-88.880524,,,,0,2518,60.5,16.3,16.9,1.4,5,44.8,7295,12708,4710,13050,3193,7208,6647,37.8,33,29.31,345,57.5,44.4,21.9
Lewis and Clark Community College,IL,146603,1,Higher Learning Commission,2,2,Public,Midwest,Suburb,38.951624,-90.194405,,,,0,3293,80.1,10.3,2.3,0.8,6.5,52.1,5615,8864,3432,12072,3446,9915,8075,100,24.1,39.42,528,56.7,42.8,27.8
Lincoln College,IL,146676,1,Higher Learning Commission,2,3,Private,Midwest,Town,40.155442,-89.36153,0.5722,17,886,0,1043,40.4,44.2,7.1,0.4,8,27.7,16139,29792,18100,18100,8357,4634,5128,33,58.6,31.32,226,52.5,41.2,27.8
Lincoln Land Community College,IL,146685,1,Higher Learning Commission,2,2,Public,Midwest,City,39.721211,-89.611249,,,,0,4530,73.8,10.9,3.6,1.4,10.4,51.6,6392,11033,3168,8976,4124,7472,9415,40.5,34,31.2,521,58.4,46.6,23.1
MacCormac College,IL,146816,1,Higher Learning Commission,2,2,Private,Midwest,City,41.881898,-87.626657,,,,0,278,17.3,59,20.9,0.4,2.5,34.2,20140,22502,12660,12660,13007,3217,4665,100,41.3,11.76,55,77.8,56.4,17.7
McHenry County College,IL,147004,1,Higher Learning Commission,2,2,Public,Midwest,Rural,42.259111,-88.368956,,,,0,4324,69.9,2.3,17.6,1.9,8.3,57.7,7201,11016,3404,14003,2789,7283,10485,30.1,19.7,28.89,166,57,48.4,27.8
Moraine Valley Community College,IL,147378,1,Higher Learning Commission,2,2,Public,Midwest,Suburb,41.694613,-87.836915,,,,0,11104,51.1,9.1,24,2.3,13.5,47.6,5151,10278,4266,10956,3080,4920,7058,24.4,27.5,27.45,374,56.6,49.1,24.5
Morrison Institute of Technology,IL,147396,1,Council on Occupational Education,2,2,Private,Midwest,Town,41.7971,-89.965963,,,,0,102,79.4,3.9,6.9,0,9.8,1,17744,24263,16100,16100,14063,7782,4733,81.8,46.2,69.23,58,,,46.2
Morton College,IL,147411,1,Higher Learning Commission,2,2,Public,Midwest,Suburb,41.824303,-87.762306,,,,0,3404,7.4,2.7,84.3,1.1,4.6,62.8,4233,9392,4116,10260,1725,5791,9118,22,43.1,24.04,46,55.7,66.9,24
Oakton Community College,IL,147800,1,Higher Learning Commission,2,2,Public,Midwest,City,42.061893,-87.880644,,,,0,8308,47.2,6.3,18.3,20.1,8.2,70.1,6812,11150,3985,12462,2922,10637,9956,25.3,18.1,21.68,58,53.6,43.4,21.7
Parkland College,IL,147916,1,Higher Learning Commission,2,2,Public,Midwest,City,40.131963,-88.290359,,,,0,5647,58.6,13.1,8.4,4.1,15.8,52.6,8707,12417,4920,15870,3674,6736,8382,41.5,29.8,28.66,685,53.7,39.1,26.3
Rock Valley College,IL,148380,1,Higher Learning Commission,2,2,Public,Midwest,City,42.306174,-88.993544,,,,0,5732,63.7,8.1,19.8,3,5.4,56.1,7842,12806,3764,15314,2102,6877,7403,33.3,28.4,31.06,237,59.8,49.8,25.4
Saint Augustine College,IL,148876,1,Higher Learning Commission,2,3,Private,Midwest,City,41.972414,-87.662806,,,,0,1232,0.7,2.2,89.4,3.6,4.2,22.5,7858,19737,13200,13200,9679,4228,5326,15.6,75,39.36,130,73.9,68.3,18.5
Southeastern Illinois College,IL,148937,1,Higher Learning Commission,2,2,Public,Midwest,Rural,37.75174,-88.436631,,,,0,905,86.3,5,2.1,0.8,5.9,31.4,5306,11378,3780,6000,976,4192,6122,52.9,26.6,39.72,,58.7,42.9,14.7
Taylor Business Institute,IL,149310,1,Higher Learning Commission,2,2,Profit,Midwest,City,41.885452,-87.62671,0.7826,,,0,127,0.8,29.9,0,0,69.3,0,16485,23800,11175,11175,5392,1378,4188,18.2,15.4,66.6,,63.4,52,0
South Suburban College,IL,149365,1,Higher Learning Commission,2,2,Public,Midwest,Suburb,41.606427,-87.619123,,,,0,2945,15.1,60,20.5,0.9,3.6,60.9,6397,10515,4883,12173,625,7271,8204,22.3,62.8,14.91,,66.6,44.9,16.1
Triton College,IL,149532,1,Higher Learning Commission,2,2,Public,Midwest,Suburb,41.916082,-87.841056,,,,0,8073,32.8,16.2,41.1,2.6,7.4,61.5,5251,10217,4020,12076,2517,5474,7964,28.7,25.7,17.68,250,61.8,53.8,23.7
Waubonsee Community College,IL,149727,1,Higher Learning Commission,2,2,Public,Midwest,Rural,41.795955,-88.459925,,,,0,7067,50.8,6.8,35.4,2.8,4.3,60.9,5674,9261,3216,8115,2816,6023,9251,24,24.3,30.59,494,57.8,49.4,30.5
Ancilla College,IN,150048,1,Higher Learning Commission,2,2,Private,Midwest,Rural,41.337958,-86.445263,,,,0,510,63.5,18.2,9.6,0,8.6,11.8,12726,22647,15830,15830,10758,13540,3711,42.2,64.1,31.61,142,52.8,46.3,33.9
College of Court Reporting Inc,IN,150251,1,Distance Education Accrediting Commission,2,2,Profit,Midwest,Suburb,41.467574,-87.066331,,,,0,229,70.3,9.6,12.7,2.6,4.8,57.6,31604,35705,9050,14450,12081,6357,,,49.2,15.67,19,93.7,46.5,27.4
International Business College-Fort Wayne,IN,151458,1,Accrediting Commission of Career Schools and Colleges,2,3,Profit,Midwest,City,41.035006,-85.257786,0.7957,,,0,244,79.9,2.9,2.9,0.8,13.5,0,17598,22326,13960,13960,13178,4361,4374,,56,71.55,544,78,47.7,37.6
International Business College-Indianapolis,IN,151467,0,Accrediting Commission of Career Schools and Colleges,2,2,Profit,Midwest,City,39.885628,-86.041648,0.9609,,,0,319,73.7,9.4,7.8,0,9.1,0,15800,21596,13960,13960,17310,6262,4516,59.1,61.7,79.44,544,78,47.7,37.6
Mid-America College of Funeral Service,IN,151962,1,American Board of Funeral Service Education Committee on Accreditation,2,3,Private,Midwest,Suburb,38.31209,-85.744696,,,,0,101,79.2,17.8,3,0,0,0,18666,19755,11900,11900,5385,1876,3767,,49.3,92.86,64,69.5,,28.5
Vincennes University,IN,152637,1,Higher Learning Commission,2,3,Public,Midwest,Town,38.687766,-87.519939,,,,0,6797,71.4,10.3,9.5,0.6,8.2,38,11205,17203,5737,13567,2982,5916,5989,16,16.6,22.91,1476,45.2,41.6,31.9
Des Moines Area Community College,IA,153214,1,Higher Learning Commission,2,2,Public,Midwest,Suburb,41.707348,-93.611597,,,,0,12521,70.3,8.5,9.4,4.5,7.3,52.5,10489,13763,4530,9060,2673,6107,7471,99.4,20.5,28.74,2542,54.7,36.9,34.5
Ellsworth Community College,IA,153296,1,Higher Learning Commission,2,2,Public,Midwest,Town,42.527524,-93.265853,,,,0,691,59.9,19.7,8.4,0.3,11.7,12.9,11521,15794,4656,5592,3766,5560,7071,96.4,38.6,33.88,192,41,31.5,40
Eastern Iowa Community College District,IA,153311,1,Higher Learning Commission,2,2,Public,Midwest,City,41.522179,-90.574459,,,,0,3185,70,8.9,12.2,2,6.9,50.3,9262,13271,4960,7104,2695,4604,5676,100,34.7,38.4,899,62.7,44.8,25.4
Purdue University Global-Mason City,IA,153409,0,Higher Learning Commission,2,4,Profit,Midwest,Town,43.149615,-93.238946,,,,0,133,55.6,1.5,5.3,0,37.6,75.2,,,15352,15352,10039,1541,4359,,68.5,27.27,13862,79.7,53.3,18.3
Purdue University Global-Cedar Rapids,IA,153418,0,Higher Learning Commission,2,4,Profit,Midwest,City,41.949597,-91.713507,,,,0,417,69.3,10.1,5,0.5,15.1,55.9,17081,23836,15352,15352,8319,2478,5757,22.2,64.9,33.33,13862,79.7,53.3,18.3
Hamilton Technical College,IA,153427,1,Accrediting Commission of Career Schools and Colleges,2,3,Profit,Midwest,City,41.573888,-90.560088,,,,0,134,64.9,13.4,16.4,1.5,3.7,0,19915,23251,14250,14250,9065,2622,3951,100,67.8,75.33,143,60.3,47.5,20.6
Hawkeye Community College,IA,153445,1,Higher Learning Commission,2,2,Public,Midwest,City,42.430003,-92.330633,,,,0,3499,79.7,9.4,4.3,1.5,5,29.2,11808,15011,5042,5752,3477,10267,6337,100,29.1,25.96,810,53.4,36,37.5
Indian Hills Community College,IA,153472,1,Higher Learning Commission,2,2,Public,Midwest,Town,41.045105,-92.394736,,,,0,2143,71.1,9.9,6.3,1.1,11.6,17.6,8591,12568,4080,5760,4586,9128,6162,29.5,36.5,34.64,884,50.9,41.2,31.1
Iowa Central Community College,IA,153524,1,Higher Learning Commission,2,2,Public,Midwest,Town,42.490067,-94.20299,,,,0,3523,66.1,14.5,7.9,1.4,10,25,9873,13602,5340,7665,3949,6210,7104,100,32,31.61,1183,46.7,40.2,29.2
Iowa Lakes Community College,IA,153533,1,Higher Learning Commission,2,2,Public,Midwest,Town,43.397996,-94.817142,,,,0,1134,75.7,8.4,7.7,1.2,7.1,15.5,10576,14925,6236,6588,3444,7627,5823,98.7,26.2,54.57,192,49.3,36.7,36.8
Iowa Western Community College,IA,153630,1,Higher Learning Commission,2,2,Public,Midwest,City,41.272168,-95.797975,,,,0,4033,70,14.9,7.8,1.3,6,36.1,11192,15782,5664,5824,3728,5364,5384,100,35.1,21.32,1097,54,42.5,29.9
Kirkwood Community College,IA,153737,1,Higher Learning Commission,2,2,Public,Midwest,City,41.911268,-91.651172,,,,0,8958,69.8,12.4,6.1,1.9,9.9,40.9,10982,14829,4586,5706,2817,6479,6759,99.6,27.4,29.29,1829,53.3,38.7,31.6
Marshalltown Community College,IA,153922,1,Higher Learning Commission,2,2,Public,Midwest,Rural,42.00065,-92.909411,,,,0,1019,54.8,4.1,20.3,2.2,18.7,31,8573,13090,4656,4992,3735,5515,7435,97.7,25.8,37.38,296,58.8,45,34.7
North Iowa Area Community College,IA,154059,1,Higher Learning Commission,2,2,Public,Midwest,Town,43.157169,-93.13126,,,,0,1682,80.3,5.5,6.4,1.2,6.7,24.1,9161,12781,5213,7429,4767,9741,6935,100,26,46.78,429,54.4,31.2,40.3
Northeast Iowa Community College,IA,154110,1,Higher Learning Commission,2,2,Public,Midwest,Rural,43.17523,-91.867105,,,,0,2210,86.5,5.1,3,0.6,4.8,48.1,9071,13018,5180,5460,3078,10192,5666,37.1,24.4,44.01,665,60.5,36.9,33.2
Northwest Iowa Community College,IA,154129,1,Higher Learning Commission,2,2,Public,Midwest,Rural,43.184701,-95.880639,,,,0,765,80.8,4.6,7.6,1.2,5.9,28.6,11862,15807,5910,6210,3848,6399,5643,24,18.7,65.02,449,50,35.4,43.5
St Luke's College,IA,154262,1,Higher Learning Commission,2,3,Private,Midwest,City,42.520081,-96.404724,0.2667,,,0,274,83.6,2.2,8.8,1.5,4,58.8,21462,24978,20440,20440,15568,13325,5610,65.1,36.2,100,103,92.5,36,37.9
Southeastern Community College,IA,154378,1,Higher Learning Commission,2,2,Public,Midwest,Town,40.814496,-91.171881,,,,0,1676,60.9,6.4,5.4,1.1,26.3,29.9,8344,12159,5400,5550,3273,9444,6353,100,31.2,37.4,394,59.4,43.7,27.2
Southwestern Community College,IA,154396,1,Higher Learning Commission,2,2,Public,Midwest,Town,41.073437,-94.380906,,,,0,879,79.1,8.3,7.4,0.8,4.4,25,8894,13130,5664,5888,3216,7607,5096,37,30.1,44.98,394,54.6,38.6,34.3
Allen County Community College,KS,154642,1,Higher Learning Commission,2,2,Public,Midwest,Town,37.938038,-95.396377,,,,0,2423,80.1,5.9,7.8,1.2,5,58.8,6157,11068,3584,3584,1768,3234,5450,20.9,21.2,30.14,106,63.4,47.1,30
Barton County Community College,KS,154697,1,Higher Learning Commission,2,2,Public,Midwest,Rural,38.403529,-98.731648,,,,0,2180,60.1,16,12.9,1.8,9.2,61.7,8294,14399,3456,3456,3182,4652,5110,92.2,13.1,31,317,59.7,46.3,30.4
Butler Community College,KS,154800,1,Higher Learning Commission,2,2,Public,Midwest,Town,37.806699,-96.882987,,,,0,7266,60.2,9.6,13.4,5.2,11.7,50.2,9088,12343,2940,5070,3000,3627,6000,100,29.4,23.37,945,59.6,41.6,29.5
Cloud County Community College,KS,154907,1,Higher Learning Commission,2,2,Public,Midwest,Rural,39.554199,-97.664147,,,,0,1080,62.3,9.3,9.1,0.9,18.4,27.8,10857,14648,3030,3270,2654,5572,4412,19,26.5,36.46,283,62.5,40.3,29
Coffeyville Community College,KS,154925,1,Higher Learning Commission,2,2,Public,Midwest,Town,37.033814,-95.621374,,,,0,1044,46.8,28.7,7.6,0.2,16.7,10.2,4355,9773,2304,3872,3763,6832,5306,64.4,40.1,39.64,216,37.6,43.4,28
Colby Community College,KS,154934,1,Higher Learning Commission,2,2,Public,Midwest,Town,39.377601,-101.052744,,,,0,799,70.3,5.8,10.6,0.8,12.5,26.8,7866,12786,3450,5130,3193,5164,3786,97.8,26.7,46.97,129,74.3,40.3,32
Cowley County Community College,KS,154952,1,Higher Learning Commission,2,2,Public,Midwest,Town,37.061668,-97.043075,,,,0,2697,70,9.9,10.2,0.9,9,42.3,10026,12961,2945,4712,2027,3460,4802,34,48,36.58,451,59.8,40.4,32
Dodge City Community College,KS,154998,1,Higher Learning Commission,2,2,Public,Midwest,Town,37.776891,-100.037481,,,,0,1103,39.7,12,44,0.7,3.6,21.9,6445,11396,2130,3510,2044,5439,5718,100,27.8,42.41,125,41.4,48.6,29.3
Garden City Community College,KS,155104,1,Higher Learning Commission,2,2,Public,Midwest,Town,37.970151,-100.848082,,,,0,1516,33.1,13,45.8,2.3,5.8,24.6,8603,12256,3072,3680,1410,4819,5907,100,35.8,31.36,202,43.9,48.3,32.2
Hesston College,KS,155177,1,Higher Learning Commission,2,3,Private,Midwest,Town,38.134558,-97.433883,,,,0,439,65.8,4.6,11.9,1.6,16.2,8.2,19614,38138,26318,26318,12970,9588,5225,57.1,38.6,54.87,205,57.8,24.9,53.1
Hutchinson Community College,KS,155195,1,Higher Learning Commission,2,2,Public,Midwest,Town,38.068035,-97.92135,,,,0,3739,67.4,8.1,11.3,0.8,12.3,41.9,7936,12381,3072,4384,2042,4744,4754,100,26.3,37.99,704,57.5,40.8,30.4
Independence Community College,KS,155201,1,Higher Learning Commission,2,2,Public,Midwest,Town,37.195614,-95.720518,,,,0,577,52.9,25.3,4,0.5,17.3,13,5364,10168,3904,4320,1794,5052,5519,100,34.8,21.67,107,37.5,38.5,25.4
Johnson County Community College,KS,155210,1,Higher Learning Commission,2,2,Public,Midwest,City,38.924125,-94.727798,,,,0,11418,62.8,8.6,11.2,4.6,12.9,56.8,12255,15852,2790,6600,3164,6715,7849,36.7,11.6,21.91,1083,57.3,36.9,29.8
Kansas Christian College,KS,155308,1,Association for Bibical Higher Educaiton,2,2,Private,Midwest,City,38.994848,-94.666878,,,,0,135,33.3,39.3,7.4,1.5,18.5,13.3,12865,16981,7640,7640,13242,14188,1861,57.9,70.6,0,,34.7,46.9,22.2
Labette Community College,KS,155450,1,Higher Learning Commission,2,2,Public,Midwest,Town,37.339062,-95.255368,,,,0,1566,75.9,4.5,6.1,0.8,12.7,58.7,6806,11431,2940,3690,1104,3910,4236,23.9,27.9,22.28,145,68.5,43.2,28.5
Galen College of Nursing-Louisville,KY,156471,1,Southern Association of Colleges and Schools Commission on Colleges,2,3,Profit,Southeast,City,38.277005,-85.695972,,,,0,1703,71.2,12.9,5.7,1.5,8.7,53.6,23687,27129,38085,38085,10414,4836,5134,32.8,51.9,56.22,3540,87.1,49.3,32.7
American National University-Lexington,KY,157021,1,Accrediting Council for Independent Colleges and Schools,2,3,Profit,Southeast,City,38.026996,-84.421099,,,,0,232,48.7,22,12.1,0,17.2,55.6,18755,27700,14886,14886,15826,6897,4035,,80.2,40.28,293,85.7,59.9,12.6
Sullivan College of Technology and Design,KY,157270,1,Accrediting Council for Independent Colleges and Schools,2,3,Profit,Southeast,Suburb,38.200284,-85.688947,0.7627,,,0,295,64.4,17,4.8,1,12.9,61.4,29376,32342,22919,22919,16154,7851,4289,53.1,57.5,37.19,,32.2,40.9,23.9
Sullivan University,KY,157793,1,Southern Association of Colleges and Schools Commission on Colleges,2,4,Profit,Southeast,City,38.212824,-85.670489,,,,0,2471,50.4,17.2,0.1,1.7,30.6,50,28718,32334,25950,25950,15426,4706,6666,43.9,59.7,31.72,1636,66.3,49.4,22.3
Bossier Parish Community College,LA,158431,1,Southern Association of Colleges and Schools Commission on Colleges,2,2,Public,Southeast,City,32.539551,-93.646881,,,,0,5975,45.6,41.6,4.7,0.6,7.5,42.3,9521,14243,4079,8589,4086,5375,4846,62.5,52.1,10.21,844,64,48.3,19.6
ITI Technical College,LA,159197,1,Accrediting Commission of Career Schools and Colleges,2,2,Profit,Southeast,Suburb,30.369764,-91.030485,,,,0,622,49.5,44.7,1.5,0.3,4,0,17997,21535,10575,10575,9448,3548,3365,29.4,52.5,59.57,429,18.4,44.7,26.5
Louisiana State University-Eunice,LA,159407,1,Southern Association of Colleges and Schools Commission on Colleges,2,2,Public,Southeast,Town,30.473292,-92.434523,,,,0,2444,68.6,24.8,1.7,0.6,4.3,41.7,9430,13983,4392,7260,3641,5408,5327,63.2,41.1,10.96,259,73.8,49.5,26.8
Southern University at Shreveport,LA,160649,1,Southern Association of Colleges and Schools Commission on Colleges,2,2,Public,Southeast,City,32.545632,-93.834559,,,,0,2165,6.2,87.8,0.1,0.6,5.3,26.3,10444,15764,4184,7432,1842,2113,4846,86.8,55.9,9.27,244,65.7,49.4,16.4
Beal College,ME,160995,1,Accrediting Commission of Career Schools and Colleges,2,2,Profit,Northeast,City,44.786465,-68.785428,,,,0,246,72.4,1.2,1.2,0,25.2,26,16720,19008,23900,23900,8524,3611,3368,28.6,58.8,37.19,156,62.8,54.1,20.5
Maine College of Health Professions,ME,161022,1,New England Commission on Higher Education,2,2,Private,Northeast,City,44.100458,-70.21732,0.8182,,920,0,188,83.5,1.6,1.1,1.6,12.2,76.6,17307,18810,11506,11506,11103,11283,6182,56.5,44.3,100,134,91.9,49.3,38.5
Central Maine Community College,ME,161077,1,New England Commission on Higher Education,2,2,Public,Northeast,Rural,44.134346,-70.235498,,,,0,2272,80.1,9.8,2,0.7,7.4,48.4,8551,13170,3660,6420,1226,5814,6097,27.9,45.6,23.17,454,55,46.8,23.7
Eastern Maine Community College,ME,161138,1,New England Commission on Higher Education,2,2,Public,Northeast,City,44.826048,-68.74445,,,,0,1870,89.4,1.7,1.8,0.6,6.6,39.5,10720,15426,3747,6507,1342,6345,6122,21.4,41.6,25.62,364,49.2,41.3,26.9
Kennebec Valley Community College,ME,161192,1,New England Commission on Higher Education,2,2,Public,Northeast,Rural,44.594149,-69.61157,,,,0,1599,93.1,0.8,1.4,0.4,4.4,64.9,9811,14039,3757,6517,2767,5711,6301,34.6,35.6,44.72,419,63.2,49.5,27.2
Northern Maine Community College,ME,161484,1,New England Commission on Higher Education,2,2,Public,Northeast,Town,46.694668,-68.034796,,,,0,608,88.7,0.8,2.1,0.3,8.1,32.4,9413,14537,3681,6441,1670,10040,6342,66.7,49.8,44.53,179,47.4,46.7,24.4
Southern Maine Community College,ME,161545,1,New England Commission on Higher Education,2,2,Public,Northeast,City,43.646649,-70.229182,,,,0,4961,79.7,7.6,3.5,2.4,6.9,51.6,11436,15970,3710,6470,2422,5569,6701,22,44.7,20.04,840,55,39.1,26.3
Allegany College of Maryland,MD,161688,1,Middle States Commission on Higher Education,2,2,Public,Northeast,City,39.652152,-78.730398,,,,0,1990,79.2,14,1.5,0.4,4.9,37.6,9928,14634,3940,8620,3290,7040,5954,52.6,42.9,21.82,588,61.7,47.8,32.5
Anne Arundel Community College,MD,161767,1,Middle States Commission on Higher Education,2,2,Public,Northeast,Suburb,39.049813,-76.512223,,,,0,11294,56.6,18,8.2,4.4,12.9,66.6,15912,18831,4646,12566,3700,8459,7501,20.6,20.5,20.24,648,60.9,43.9,27.9
Baltimore City Community College,MD,161864,1,Middle States Commission on Higher Education,2,2,Public,Northeast,City,39.319978,-76.662878,,,,0,3797,5,74.5,3,1.8,15.6,65.3,4543,9538,3074,7154,2056,13915,6672,43.1,46.9,13.1,,67.4,56.5,13.6
Cecil College,MD,162104,1,Middle States Commission on Higher Education,2,2,Public,Northeast,Rural,39.642225,-75.955949,,,,0,2112,75,10,5.5,1.1,8.5,60.1,7168,10774,4005,8265,4134,8356,6532,26.2,31.1,20.52,124,62.7,53.3,28.2
College of Southern Maryland,MD,162122,1,Middle States Commission on Higher Education,2,2,Public,Northeast,Rural,38.55895,-77.009245,,,,0,6699,54.9,25.8,7.2,3.2,9,61.2,8307,12458,3690,8266,5292,7191,8280,22.4,22.6,27.9,266,63.8,45.1,29.7
Chesapeake College,MD,162168,1,Middle States Commission on Higher Education,2,2,Public,Northeast,Rural,38.952193,-76.083668,,,,0,1744,68.1,15.7,5.3,1.3,9.7,67.5,4334,9318,3818,7328,3728,8740,6848,30.2,37.3,18.1,,67.8,53.6,19.9
Frederick Community College,MD,162557,1,Middle States Commission on Higher Education,2,2,Public,Northeast,City,39.452241,-77.417849,,,,0,4830,61.1,14.8,12.9,4.5,6.8,59.7,7311,11200,3520,9160,4721,9004,6908,24.9,19.2,31.21,366,59,43.4,31.3
Garrett College,MD,162609,1,Middle States Commission on Higher Education,2,2,Public,Northeast,Rural,39.560493,-79.342923,,,,0,450,67.3,25.6,2.2,0,4.9,12,8267,12936,3948,8568,3714,10243,6079,43.8,51.5,31.8,71,50.6,41,28.2
Hagerstown Community College,MD,162690,1,Middle States Commission on Higher Education,2,2,Public,Northeast,Suburb,39.631009,-77.667379,,,,0,3181,72.2,11.7,6.9,1.7,7.5,71.2,7701,10727,3616,6918,4377,6231,6094,35.3,33.1,36.53,565,60.8,47.6,28.3
Harford Community College,MD,162706,1,Middle States Commission on Higher Education,2,2,Public,Northeast,Rural,39.56131,-76.282845,,,,0,5018,68.7,17.2,5.4,2.7,5.9,58.2,7721,11271,3643,7902,3956,4848,6291,31.8,22.3,28.91,291,60.5,41.3,30
Howard Community College,MD,162779,1,Middle States Commission on Higher Education,2,2,Public,Northeast,City,39.213636,-76.877964,,,,0,8943,33,31,10.6,11.7,13.8,62.3,10269,14835,3888,6960,4764,9446,7329,21.5,28.9,19.2,341,62.2,38.7,25.4
Montgomery College,MD,163426,1,Middle States Commission on Higher Education,2,2,Public,Northeast,City,39.098656,-77.15929,,,,0,18915,23.2,26.3,25.3,11.7,13.6,61.1,8660,13647,4974,13110,3942,7395,8782,33.1,31.2,22.51,696,56.1,43.6,26
Prince George's Community College,MD,163657,1,Middle States Commission on Higher Education,2,2,Public,Northeast,Suburb,38.888689,-76.824623,,,,0,10743,3.7,71,12.4,4.1,8.8,71.9,8658,12691,3770,8498,3750,6908,7144,27.9,35.9,8.65,522,62.8,46.1,25.5
Wor-Wic Community College,MD,164313,1,Middle States Commission on Higher Education,2,2,Public,Northeast,Rural,38.373723,-75.499659,,,,0,2652,59.4,27.8,4.9,1.7,6.3,70.8,8839,12959,3000,7536,2763,5936,5981,43.7,45.8,19.54,190,63.2,49,21.4
Berkshire Community College,MA,164775,1,New England Commission on Higher Education,2,2,Public,Northeast,Rural,42.45975,-73.314704,,,,0,1585,75.5,7.9,8.8,2,5.7,60.8,9369,15236,5212,10828,4347,11005,7333,41.1,43.1,18.46,277,58.7,44.9,24.3
Bristol Community College,MA,165033,1,New England Commission on Higher Education,2,2,Public,Northeast,Suburb,41.721994,-71.119133,,,,0,6994,69.9,8.6,9.1,2.3,10.2,53.1,7013,10405,4656,9600,3780,6663,6580,100,47.1,20.61,1149,62.8,50.7,25.4
Bunker Hill Community College,MA,165112,1,New England Commission on Higher Education,2,2,Public,Northeast,City,42.374806,-71.069263,,,,0,10732,21,26,24,11.1,17.9,62.2,8233,12367,4224,9168,3705,4631,7548,28.3,53.7,13.63,366,57.1,54.9,17.3
Cape Cod Community College,MA,165194,1,New England Commission on Higher Education,2,2,Public,Northeast,City,41.691911,-70.337334,,,,0,2700,74.4,7.2,7.6,2.5,8.3,65,8000,12838,4536,9480,3558,8538,6646,23.9,32.1,23.94,211,59.2,41.3,24.1
Laboure College,MA,165264,1,New England Commission on Higher Education,2,3,Private,Northeast,Suburb,42.260866,-71.058279,0.7843,,,0,869,48.6,32.2,9.7,3.5,6.1,95.9,38498,38498,36103,36103,25194,12698,5952,42,63.7,100,487,90.5,45.1,33.5
Dean College,MA,165574,1,New England Commission on Higher Education,2,3,Private,Northeast,Suburb,42.085634,-71.397813,0.8607,22,1002,0,1260,54.4,14.3,7.9,1.6,21.7,12.6,29870,53544,38090,38090,17744,8029,6328,20.3,34.8,41.79,430,40.4,31.7,51.5
Benjamin Franklin Institute of Technology,MA,165884,1,New England Commission on Higher Education,2,3,Public,Northeast,City,42.346023,-71.070231,,,,0,550,24.4,26.9,24.7,12,12,13.3,13711,24802,17450,17450,9254,6332,6430,53.5,52.6,47.73,281,11.1,48.8,22
Greenfield Community College,MA,165981,1,New England Commission on Higher Education,2,2,Public,Northeast,Town,42.599512,-72.630977,,,,0,1551,75.7,4.1,8.6,3.8,7.8,66.3,12350,15303,5450,11570,5486,9828,7352,35.5,43.4,24.87,287,61.8,36.7,23.5
Holyoke Community College,MA,166133,1,New England Commission on Higher Education,2,2,Public,Northeast,Suburb,42.194781,-72.651252,,,,0,5059,57.4,6.3,27,2.6,6.7,51.1,8048,12375,4662,9606,3561,6718,7263,32.5,45.7,23.09,807,61.8,47.3,22.7
Lawrence Memorial Hospital School of Nursing,MA,166407,1,Accreditation Commission for Education in Nursing,2,2,Private,Northeast,Suburb,42.42581,-71.110958,,,,0,281,58.7,7.1,7.1,3.2,23.8,93.6,,,27655,27655,17612,21681,7327,70,42.4,100,146,92.1,51.5,35.1
Massachusetts Bay Community College,MA,166647,1,New England Commission on Higher Education,2,2,Public,Northeast,Suburb,42.312292,-71.263821,,,,0,3736,50.2,14,19.5,5.3,10.9,60.5,11454,16165,5088,10032,4523,5506,7905,21.1,21.9,16.82,313,54.6,43.2,26.6
Massasoit Community College,MA,166823,1,New England Commission on Higher Education,2,2,Public,Northeast,Suburb,42.07507,-70.989799,,,,0,6035,51.9,29.6,8.3,1.6,8.6,52.1,7858,11729,4680,9624,5717,4807,6731,20.4,34.1,17.16,625,57.2,46.1,27.1
Middlesex Community College,MA,166887,1,New England Commission on Higher Education,2,2,Public,Northeast,Suburb,42.524328,-71.274931,,,,0,7183,54.8,8.6,18.4,13.1,5.2,61.2,4515,9021,4802,9746,4280,6470,7431,23.3,31.4,19.31,641,59.9,49.8,27.3
Mount Wachusett Community College,MA,166957,1,New England Commission on Higher Education,2,2,Public,Northeast,Rural,42.593142,-71.984148,,,,0,3410,68,7.7,16.3,2.4,5.5,63.8,8186,12882,5428,10348,4242,5332,8004,100,46.1,21.27,689,63.1,48.3,27.2
North Shore Community College,MA,167312,1,New England Commission on Higher Education,2,2,Public,Northeast,Suburb,42.590103,-70.968044,,,,0,5514,56.2,10,25.6,4,4.2,61.2,8453,12367,4944,10512,4587,5308,7141,100,40.8,18.18,774,61.7,52.1,24.3
Northern Essex Community College,MA,167376,1,New England Commission on Higher Education,2,2,Public,Northeast,Suburb,42.796634,-71.04904,,,,0,5133,45.5,4.2,44.1,2.3,4,62.8,9428,13606,4992,10776,4246,7756,7031,28.4,54.6,17.59,701,61.6,50.9,24.4
Quincy College,MA,167525,1,New England Commission on Higher Education,2,2,Public,Northeast,Suburb,42.252416,-71.003476,,,,0,4634,39.3,27.5,8.4,6,18.8,57,14449,18559,6306,6306,7398,6246,7851,98.5,42.2,12.5,811,70,48,24.9
Quinsigamond Community College,MA,167534,1,New England Commission on Higher Education,2,2,Public,Northeast,City,42.31379,-71.79503,,,,0,6584,54.5,13.3,18.6,4.8,8.8,60.5,8365,12353,5538,10482,4451,7742,7401,27.1,43.4,19.14,1491,57,47.7,25.2
Roxbury Community College,MA,167631,1,New England Commission on Higher Education,2,2,Public,Northeast,City,42.329249,-71.09549,,,,0,1834,6.1,63.4,19.3,1.4,9.9,68.6,8403,14091,4424,9728,1945,8606,7470,18.1,77.5,6.25,,69.6,53.4,13.6
Bard College at Simon's Rock,MA,167792,1,New England Commission on Higher Education,2,3,Private,Northeast,Town,42.208803,-73.379201,0.6609,,,0,391,56.3,6.4,2.3,7.4,27.6,0,33991,67336,53418,53418,26485,19529,7338,63.4,21.6,60,84,63.9,,81.5
Springfield Technical Community College,MA,167905,1,New England Commission on Higher Education,2,2,Public,Northeast,City,42.108827,-72.578514,,,,0,4837,42.4,15.9,29.1,3.5,9.1,53.5,8399,12982,6066,12576,3184,8003,6943,44.6,51.9,21.05,838,58.5,48.1,20
Alpena Community College,MI,168607,1,Higher Learning Commission,2,2,Public,Midwest,Rural,45.081647,-83.445069,,,,0,1067,93.9,1.3,1.6,1.4,1.8,39.6,3512,8789,4410,6630,4008,7463,8437,39,37.8,35.21,230,47.1,42.8,25.7
Baker College,MI,168847,1,Higher Learning Commission,2,4,Private,Midwest,Suburb,42.974764,-83.694679,,,,0,11431,79.6,11.6,4.1,2,2.7,61.8,12871,18725,9360,9360,9547,5739,5328,8.5,49.3,12.61,5971,66.7,47.1,23.1
Bay de Noc Community College,MI,168883,1,Higher Learning Commission,2,2,Public,Midwest,Town,45.772586,-87.085228,,,,0,1386,87.7,1.2,2.5,0.5,8.2,47.3,5867,10666,4638,8958,5359,10615,7615,100,33.7,30.1,319,58.6,43.9,25.5
Mott Community College,MI,169275,1,Higher Learning Commission,2,2,Public,Midwest,City,43.019941,-83.67243,,,,0,6290,68.9,18.2,4.6,0.5,7.7,69.2,6860,11358,3996,6968,4148,5859,8067,100,44.2,14.95,882,57.5,40.3,21.4
Delta College,MI,169521,1,Higher Learning Commission,2,2,Public,Midwest,Rural,43.559491,-83.985943,,,,0,7291,78.8,7.8,7.4,0.8,5.3,60.8,4743,9949,3800,10910,4122,7864,9289,100,38,14.01,728,57,41.5,22.6
Glen Oaks Community College,MI,169974,1,Higher Learning Commission,2,2,Public,Midwest,Rural,41.892504,-85.496929,,,,0,667,74.2,7.1,12.1,1.4,5.3,50.4,5482,10085,3384,5712,3349,5370,6989,78.4,27.4,26.96,80,60.8,52.9,31.7
Gogebic Community College,MI,169992,1,Higher Learning Commission,2,2,Public,Midwest,Rural,46.471893,-90.165592,,,,0,758,88.9,2.2,1.5,0.3,7.1,35.2,7996,12839,4739,7188,3668,5676,6911,100,36.3,36.97,206,52.6,39,34
Grace Christian University,MI,170000,1,Association for Bibical Higher Educaiton,2,3,Private,Midwest,City,42.919541,-85.692077,0.6411,,,0,834,56.5,26.4,4.9,1.2,11,1.4,14416,22013,11569,11569,7870,7260,4614,100,64.3,50,224,57.8,51.7,25
Grand Rapids Community College,MI,170055,1,Higher Learning Commission,2,2,Public,Midwest,City,42.967076,-85.665625,,,,0,12597,66.4,9.1,13.7,4.2,6.6,66.7,8807,12659,3487,10081,4570,7108,8418,33.7,30.4,14.34,1727,54.4,41.4,29.7
Henry Ford College,MI,170240,1,Higher Learning Commission,2,2,Public,Midwest,City,42.324639,-83.236056,,,,0,10935,54.3,20.5,2.3,2.2,20.7,63,3865,9071,3014,6470,2599,6823,10047,100,47.2,7.2,918,57.4,50.7,16.8
Jackson College,MI,170444,1,Higher Learning Commission,2,3,Public,Midwest,Rural,42.16483,-84.403942,,,,0,3962,69.8,10.2,5,1.6,13.4,52.6,8258,14297,5984,10624,3480,6622,7006,100,46.2,10.22,440,52.3,45.8,18.8
Kalamazoo Valley Community College,MI,170541,1,Higher Learning Commission,2,2,Public,Midwest,Suburb,42.225948,-85.682144,,,,0,6911,70.5,14,5.8,1.8,7.8,64,4203,8865,3381,7491,3772,7198,9681,22.9,35.2,15.38,749,54,38.5,24.7
Kellogg Community College,MI,170550,1,Higher Learning Commission,2,2,Public,Midwest,City,42.335638,-85.177329,,,,0,3497,70.8,11.2,5.7,2.3,10,68.1,7683,12311,3928,8480,4364,7818,9147,98.9,27.7,15.49,359,64.2,48,23.9
Kirtland Community College,MI,170587,1,Higher Learning Commission,2,2,Public,Midwest,Rural,44.490753,-84.413388,,,,0,1098,92,1.4,2,0.8,3.8,56.2,6189,12030,4020,8130,4646,6894,5395,60.5,43.7,21.57,240,59.5,46.5,21.3
Lake Michigan College,MI,170620,1,Higher Learning Commission,2,3,Public,Midwest,Rural,42.097276,-86.393445,,,,0,2629,64.6,15.9,10.8,1.9,6.9,64.5,7947,12998,4440,6105,3361,6174,7258,100,34.8,14.23,169,62.5,44.4,21.8
Lansing Community College,MI,170657,1,Higher Learning Commission,2,2,Public,Midwest,City,42.737719,-84.553315,,,,0,11764,67.6,9.8,8.6,3.2,10.9,61.4,5485,9283,3470,9650,3345,6463,8128,12.8,32.5,17.86,1349,53.5,38.1,26.4
Macomb Community College,MI,170790,1,Higher Learning Commission,2,2,Public,Midwest,City,42.50599,-82.972377,,,,0,16146,68.1,12.1,3,4.7,12.1,69.6,7966,12212,3375,7649,3269,5364,8900,24.1,21.4,11.13,621,59.1,48.7,21
Mid Michigan College,MI,171155,1,Higher Learning Commission,2,2,Public,Midwest,Rural,43.969586,-84.763715,,,,0,2913,78.2,5.1,4.8,0.1,11.8,57.4,7285,12118,4597,6847,3930,4250,6909,100,40.8,11.66,421,54.4,44,24.2
Monroe County Community College,MI,171225,1,Higher Learning Commission,2,2,Public,Midwest,Rural,41.91617,-83.470274,,,,0,2249,85.2,3.7,3.3,0.7,7.1,64.6,5181,9366,3890,7025,3927,8372,9407,25.6,29.2,15.42,317,58.7,47.9,26.9
Muskegon Community College,MI,171304,1,Higher Learning Commission,2,2,Public,Midwest,City,43.250329,-86.196384,,,,0,3411,76.2,8.9,5.5,0.5,9,61.7,5343,9085,5550,12310,4492,7372,9920,100,32.3,15.54,205,57.5,41.7,25.2
North Central Michigan College,MI,171395,1,Higher Learning Commission,2,2,Public,Midwest,Rural,45.361727,-84.954183,,,,0,1578,83.1,2.7,3.6,0.6,10,58.2,3846,9265,3952,7882,3316,6426,7919,100,34.7,17.62,111,60.4,42.1,26.7
Northwestern Michigan College,MI,171483,1,Higher Learning Commission,2,3,Public,Midwest,Town,44.765436,-85.585517,,,,0,3515,83.6,1.2,3.5,0.9,10.8,59,9773,14758,4106,9425,7838,9444,7367,30.4,31.7,19.91,552,52.9,38.1,30.8
Oakland Community College,MI,171535,1,Higher Learning Commission,2,2,Public,Midwest,Suburb,42.595441,-83.244787,,,,0,9866,63.2,18.6,3.5,4.3,10.4,69.5,4237,8419,2360,4376,2697,5991,9020,100,22.9,11.46,715,60.4,42.9,21.5
Schoolcraft College,MI,172200,1,Higher Learning Commission,2,3,Public,Midwest,City,42.419279,-83.430958,,,,0,9359,65.1,14.6,4.9,3.9,11.6,69.1,7389,9878,3668,6866,4148,6052,9840,19.8,30.3,17.09,469,60.2,42.6,21.2
St Clair County Community College,MI,172291,1,Higher Learning Commission,2,2,Public,Midwest,Suburb,42.979494,-82.428717,,,,0,2525,71.4,2,3.2,0.4,23,56.2,3639,8825,4328,10931,4352,6754,8607,35.6,28.2,22.13,414,60,42.6,26
Southwestern Michigan College,MI,172307,1,Higher Learning Commission,2,2,Public,Midwest,Rural,41.965095,-86.082715,,,,0,1767,70.2,13.5,4.8,1,10.5,42.4,9095,14310,5025,6525,4382,7054,6254,41.4,40.7,24.95,293,58.6,41.4,29.3
Wayne County Community College District,MI,172635,1,Higher Learning Commission,2,2,Public,Midwest,City,42.327299,-83.054497,,,,0,10143,16.5,66.9,1.9,0.8,14,80.4,5596,10949,2838,3842,2845,7253,7766,10.3,46.3,11.84,583,61.1,53.6,10.1
West Shore Community College,MI,172671,1,Higher Learning Commission,2,2,Public,Midwest,Rural,44.008512,-86.336122,,,,0,820,80.1,1.3,9,0.6,8.9,65.9,3214,8654,2930,5810,2269,7114,8049,27.2,47.6,26.39,103,58.2,43.4,22
Alexandria Technical & Community College,MN,172918,1,Higher Learning Commission,2,2,Public,Midwest,Town,45.873107,-95.372369,,,,0,1496,90.5,1.3,3.5,0.5,4.2,27.2,14039,17933,5410,5410,3706,7645,7953,65,23.7,57.48,668,45.4,26.3,49.2
Anoka-Ramsey Community College,MN,172963,1,Higher Learning Commission,2,2,Public,Midwest,Suburb,45.172978,-93.351697,,,,0,5364,73.3,9.3,6,4.4,7,54,11716,15061,5059,5059,3357,5139,7863,49.4,24.1,24.24,614,62,34.2,38.2
Central Lakes College-Brainerd,MN,173203,1,Higher Learning Commission,2,2,Public,Midwest,Town,46.345863,-94.214266,,,,0,1909,84.3,5.7,2.6,0.8,6.5,40.8,12618,16929,5494,5494,2815,5876,7923,63.8,26.3,42.6,544,49.5,31.7,30.5
Lake Superior College,MN,173461,1,Higher Learning Commission,2,2,Public,Midwest,City,46.78455,-92.145151,,,,0,3285,83.8,2.9,3,1.4,8.9,50.8,12879,16036,5153,9483,4499,7528,7682,41.1,28.5,31.23,832,53.5,28.5,31.6
Minnesota State Community and Technical College,MN,173559,1,Higher Learning Commission,2,2,Public,Midwest,Town,46.289194,-96.097321,,,,0,4191,73.8,11.5,4.8,2.7,7.4,45.9,10869,14878,5335,5335,3178,6069,7753,52,32.9,35.71,774,54.7,30.1,32.4
Hibbing Community College,MN,173735,1,Higher Learning Commission,2,2,Public,Midwest,Town,47.422361,-92.921698,,,,0,893,82.2,7.2,2.9,0.3,7.4,39,9631,14340,5310,6491,4888,10839,7693,60.6,42.8,40.5,320,48.4,33.7,30
Inver Hills Community College,MN,173799,1,Higher Learning Commission,2,2,Public,Midwest,Suburb,44.828599,-93.055255,,,,0,3269,62.8,10.7,12.4,6.9,7.3,56.7,11709,14685,5332,5332,3680,5391,7648,47.1,26.9,24.68,457,59.5,33.4,35
Itasca Community College,MN,173805,1,Higher Learning Commission,2,2,Public,Midwest,Town,47.241919,-93.49555,,,,0,845,80.6,7.6,1.7,0.5,9.7,30.1,10791,15671,5325,6507,2703,5464,7922,38,36.8,31.82,141,46,27.7,33.1
South Central College,MN,173911,1,Higher Learning Commission,2,2,Public,Midwest,City,44.174319,-94.047428,,,,0,2393,71.1,12.6,10.5,1.5,4.3,43.3,10484,14521,5417,5417,3637,7760,7810,54.6,45.2,24.67,530,51.6,36.7,31.9
Minneapolis Community and Technical College,MN,174136,1,Higher Learning Commission,2,2,Public,Midwest,City,44.972679,-93.284507,,,,0,6218,38,31,13.5,4.9,12.7,61.1,13039,17587,5396,5396,2525,5475,7929,39.2,44.1,16.15,1029,54.9,38.7,19.9
Herzing University-Minneapolis,MN,174154,0,Higher Learning Commission,2,3,Private,Midwest,Suburb,44.975225,-93.404863,0.766,,,0,372,53,12.1,3,12.1,19.9,45.2,18898,26465,13850,13850,12949,6585,6200,34.9,60.7,87.5,3377,81.4,52.1,18.3
North Hennepin Community College,MN,174376,1,Higher Learning Commission,2,2,Public,Midwest,Suburb,45.106937,-93.374536,,,,0,5124,42.7,25.5,8.6,14.4,8.8,66.4,10358,14271,4420,4420,2971,5460,7814,49.6,37.4,19.1,824,59.4,37.6,29.6
Normandale Community College,MN,174428,1,Higher Learning Commission,2,2,Public,Midwest,City,44.829706,-93.331673,,,,0,7222,53.8,17.1,11.9,8.9,8.2,53.8,12060,16045,5790,5790,3532,5379,7807,47.8,28.7,26.26,725,56,34.6,31
Rainy River Community College,MN,174604,1,Higher Learning Commission,2,2,Public,Midwest,Town,48.590001,-93.431603,,,,0,176,54,14.8,16.5,1.1,13.6,15.3,8028,13077,5325,6507,2848,5426,7340,,37.3,32.43,37,44.1,31,25.3
Rochester Community and Technical College,MN,174738,1,Higher Learning Commission,2,2,Public,Midwest,City,44.014488,-92.42321,,,,0,4204,69.3,12.3,7.2,5.2,6,52.1,14813,18631,5636,5636,3565,6678,7940,49.6,35.2,22.46,946,57.3,33.3,32.1
St Cloud Technical and Community College,MN,174756,1,Higher Learning Commission,2,2,Public,Midwest,City,45.579065,-94.175841,,,,0,3765,74.2,13.9,4.9,1.6,5.4,45.5,9397,13026,5359,5359,3086,6846,7765,45.7,41,32.84,879,51.4,32.1,33.4
Rasmussen College-Minnesota,MN,175014,1,Higher Learning Commission,2,3,Profit,Midwest,City,45.548117,-94.206254,,,,0,3848,59.1,13.2,3.9,4.6,19.1,52.1,16547,21689,10935,10935,16790,3984,5802,29.8,42.9,34.06,11017,81.4,47.6,25.1
Vermilion Community College,MN,175157,1,Higher Learning Commission,2,2,Public,Midwest,Town,47.905184,-91.837777,,,,0,459,72.8,15.3,4.8,0.9,6.3,7,11721,15081,5325,6506,2848,5134,7479,52.8,34.8,25.69,104,24.9,31.5,43
Dunwoody College of Technology,MN,175227,1,Higher Learning Commission,2,3,Private,Midwest,City,44.97281,-93.290608,0.7275,,,0,1288,73.9,4,3.2,7.4,11.6,16.8,20504,26772,21610,21610,19650,11902,5852,50.9,40,63.5,651,16.7,28.2,34.2
Ridgewater College,MN,175236,1,Higher Learning Commission,2,2,Public,Midwest,Town,45.138313,-95.07305,,,,0,2678,81,4.4,9,1.2,4.5,35.1,12394,16314,5759,5759,3719,8544,7720,51.6,35.8,42.7,738,51.5,31.4,37.5
Century College,MN,175315,1,Higher Learning Commission,2,2,Public,Midwest,Suburb,45.041823,-92.982105,,,,0,7502,54.8,10.3,8.3,18.2,8.4,55,10765,14643,5417,5417,3150,5857,7921,46.3,38.8,18.38,1140,56,34.4,29.6
Coahoma Community College,MS,175519,1,Southern Association of Colleges and Schools Commission on Colleges,2,2,Public,Southeast,Rural,34.254417,-90.568469,,,,0,1625,4.3,94.6,0.3,0,0.8,11.5,1035,7087,2803,2803,0,6644,4997,63,79.5,29.21,,53,42.3,14.4
Antonelli College-Jackson,MS,175528,0,Accrediting Commission of Career Schools and Colleges,2,2,Profit,Southeast,Rural,32.328918,-90.12297,,,,0,270,18.5,76.3,3,0,2.2,23,22207,27237,15980,15980,10473,3179,3658,42.4,92.7,43.24,605,90.9,53.1,12
Copiah-Lincoln Community College,MS,175573,1,Southern Association of Colleges and Schools Commission on Colleges,2,2,Public,Southeast,Rural,31.69272,-90.400234,,,,0,2385,53.6,42.6,1.1,0.3,2.5,13.8,3631,9465,3180,5180,1046,4274,4665,75.3,50.4,45.48,480,59.4,41.1,18.7
East Central Community College,MS,175643,1,Southern Association of Colleges and Schools Commission on Colleges,2,2,Public,Southeast,Rural,32.441164,-89.113706,,,,0,2077,50.8,35.2,1.9,0.4,11.7,12.2,4701,10158,2790,4890,458,4700,5265,59.4,51.9,40.33,337,57.2,37.1,22.7
East Mississippi Community College,MS,175652,1,Southern Association of Colleges and Schools Commission on Colleges,2,2,Public,Southeast,Rural,32.830246,-88.483516,,,,0,3422,48.9,43.6,2,0.5,5,28.6,5259,11591,3240,6240,1572,4272,5884,47.1,52.7,41.04,440,53,37.5,19.5
Holmes Community College,MS,175810,1,Southern Association of Colleges and Schools Commission on Colleges,2,2,Public,Southeast,Rural,32.969985,-89.915803,,,,0,4853,47.9,47.1,1.8,0.8,2.4,23.7,4093,10070,3110,5690,1451,4899,5968,100,49.7,37,851,67.9,38.5,18.1
Itawamba Community College,MS,175829,1,Southern Association of Colleges and Schools Commission on Colleges,2,2,Public,Southeast,Town,34.276519,-88.412073,,,,0,4358,67.1,27.4,2,0.4,3.2,21.7,5824,10969,2840,5040,3157,7205,6554,49,49,42.79,711,57.5,41.4,22.6
Jones County Junior College,MS,175883,1,Southern Association of Colleges and Schools Commission on Colleges,2,2,Public,Southeast,Town,31.596936,-89.200895,,,,0,4025,61.8,33.7,1,0.5,3.1,15.8,5207,10016,3480,4480,810,4864,6029,85.9,44.2,33.45,487,58.5,40.2,20.7
Meridian Community College,MS,175935,1,Southern Association of Colleges and Schools Commission on Colleges,2,2,Public,Southeast,Town,32.367355,-88.732823,,,,0,3243,47.1,43.8,1.1,0.5,7.6,25.4,5533,10353,2964,4044,1576,6223,4975,62,40.5,27.84,514,68.9,41.9,19.1
Mississippi Delta Community College,MS,176008,1,Southern Association of Colleges and Schools Commission on Colleges,2,2,Public,Southeast,Town,33.444906,-90.502053,,,,0,2034,28.1,67.8,1.7,0.5,1.9,13.1,2164,7887,3030,4638,650,7022,5951,61,70.1,35.99,,56.9,42.4,14.2
Mississippi Gulf Coast Community College,MS,176071,1,Southern Association of Colleges and Schools Commission on Colleges,2,2,Public,Southeast,Rural,30.780784,-89.142952,,,,0,7858,61.2,25.4,4.6,2.5,6.3,27.5,7566,12799,3670,6770,3251,6509,5396,62.8,48.7,35.56,1349,59.4,43.5,20.5
Northeast Mississippi Community College,MS,176169,1,Southern Association of Colleges and Schools Commission on Colleges,2,2,Public,Southeast,Town,34.668339,-88.562609,,,,0,2975,76.3,18.1,2.4,0.4,2.8,10.7,7054,12596,3232,5932,840,6327,5519,84.6,53.5,34.05,379,55.8,44.7,23
Northwest Mississippi Community College,MS,176178,1,Southern Association of Colleges and Schools Commission on Colleges,2,2,Public,Southeast,Town,34.625532,-89.969525,,,,0,6522,61.3,33,3,1.1,1.6,20.9,5864,10740,3000,5400,1382,6379,5758,58.3,47.3,25.07,909,58.8,41.7,23.7
Pearl River Community College,MS,176239,1,Southern Association of Colleges and Schools Commission on Colleges,2,2,Public,Southeast,Rural,30.844322,-89.543052,,,,0,3817,65.1,28.7,2,0.6,3.6,20.3,7890,12357,3500,5898,576,5401,4755,100,48.3,29.49,601,58.4,42.3,18.7
Southeastern Baptist College,MS,176336,1,Association for Bibical Higher Educaiton,2,3,Private,Southeast,Town,31.748512,-89.149373,,,,0,37,43.2,48.7,2.7,5.4,0,51.4,3533,6950,5165,5165,2447,2818,3365,,64.4,100,,,,22
Southwest Mississippi Community College,MS,176354,1,Southern Association of Colleges and Schools Commission on Colleges,2,2,Public,Southeast,Town,31.295121,-90.443295,,,,0,1779,53.5,42.3,1.6,0.3,2.3,12,4190,10076,3200,5900,1150,5266,6238,100,58.3,39.96,,55,42.1,16.4
Cottey College,MO,177117,1,Higher Learning Commission,2,3,Private,Midwest,Town,37.836127,-94.371311,0.6409,21,1053,0,265,64.9,4.5,8.3,0.4,21.9,1.9,17096,29885,20200,20200,6091,24086,6470,80.4,41.7,67.86,72,,30.7,42.4
Crowder College,MO,177135,1,Higher Learning Commission,2,2,Public,Midwest,Town,36.814906,-94.368315,,,,0,3344,77.4,1.3,10.5,1.8,9.1,38.6,5125,9751,2664,3840,2510,5888,4786,26.8,36.7,28.53,552,62.6,53.5,26.5
East Central College,MO,177250,1,Higher Learning Commission,2,2,Public,Midwest,Rural,38.431845,-90.97809,,,,0,2163,93.3,1.2,2.1,0.7,2.7,42,7517,12216,2592,4896,2173,4505,5618,38.5,42,21.14,139,66.2,46,24.2
Ozarks Technical Community College,MO,177472,1,Higher Learning Commission,2,2,Public,Midwest,City,37.216479,-93.279985,,,,0,10618,82.7,2.9,5.1,1.3,8,46.5,7643,11214,3192,5352,2173,4735,5603,18.8,48.5,29.5,1823,59.4,46.5,21.9
Jefferson College,MO,177676,1,Higher Learning Commission,2,2,Public,Midwest,Rural,38.259889,-90.558954,,,,0,4182,87.6,2.5,0,0.8,9.1,52.7,5899,10021,3300,6450,2221,5078,6429,100,37,26.06,385,61,45.8,26.1
State Technical College of Missouri,MO,177977,1,Higher Learning Commission,2,2,Public,Midwest,Rural,38.467699,-91.814259,,,,0,1135,94.1,1.2,2.2,0.2,2.3,8.3,8976,15684,6060,11040,5543,10450,5262,80.5,36.7,70.89,582,18.3,41.1,47.1
Metropolitan Community College-Kansas City,MO,177995,1,Higher Learning Commission,2,2,Public,Midwest,City,39.068668,-94.58966,,,,0,14276,58.6,16.1,11.2,3.1,11.1,53.5,7058,11556,3120,7140,2127,4733,6922,100,36.5,21.2,892,60.4,45.4,23.3
Mineral Area College,MO,178217,1,Higher Learning Commission,2,2,Public,Midwest,Town,37.845199,-90.481847,,,,0,2774,90.3,3.1,1.8,0.6,4.2,24.1,8712,13530,3520,6280,1815,3839,5452,34.2,33,33.12,405,62.2,53.3,25.1
Moberly Area Community College,MO,178448,1,Higher Learning Commission,2,2,Public,Midwest,Town,39.418607,-92.455064,,,,0,3635,77.6,8.8,3.4,3.1,7,39.9,7056,11778,3300,6600,3733,3697,5251,26.3,44.6,30.18,487,59.2,41.3,26
Ranken Technical College,MO,178891,1,Higher Learning Commission,2,3,Private,Midwest,City,38.653303,-90.248465,,,,0,1644,63.5,15.5,1.9,1,18.2,27.9,15642,22042,14457,14457,12644,5468,5180,56.7,58.6,55.73,985,5.5,38.9,31
Saint Louis Community College,MO,179308,1,Higher Learning Commission,2,2,Public,Midwest,Suburb,38.745678,-90.437078,,,,0,16785,51.8,33.7,3.2,3.5,7.9,59.3,7565,12051,3285,6435,1969,6721,7191,29.5,35.3,12.36,737,61.5,41.8,20.1
